Facility Id,FRS Id,Facility Name,City,State,Zip Code,Address,County,Latitude,Longitude,Primary NAICS Code,Industry Type (subparts),Industry Type (sectors),Total reported direct emissions,CO2 emissions (non-biogenic) ,Methane (CH4) emissions ,Nitrous Oxide (N2O) emissions ,HFC emissions,PFC emissions,SF6 emissions ,NF3 emissions,Other Fully Fluorinated GHG emissions,HFE emissions,Very Short-lived Compounds emissions,Other GHGs (metric tons CO2e),Biogenic CO2 emissions (metric tons),Stationary Combustion,Electricity Generation,Adipic Acid Production,Aluminum Production,Ammonia Manufacturing,Cement Production,Electronics Manufacture,Ferroalloy Production,Fluorinated GHG Production,Glass Production,HCFC–22 Production from HFC–23 Destruction,Hydrogen Production,Iron and Steel Production,Lead Production,Lime Production,Magnesium Production,Miscellaneous Use of Carbonates,Nitric Acid Production,Petroleum and Natural Gas Systems – Offshore Production,Petroleum and Natural Gas Systems – Processing,Petroleum and Natural Gas Systems – Transmission/Compression,Petroleum and Natural Gas Systems – Underground Storage,Petroleum and Natural Gas Systems – LNG Storage,Petroleum and Natural Gas Systems – LNG Import/Export,Petrochemical Production,Petroleum Refining,Phosphoric Acid Production,Pulp and Paper Manufacturing,Silicon Carbide Production,Soda Ash Manufacturing,Titanium Dioxide Production,Underground Coal Mines,Zinc Production,Municipal Landfills,Industrial Wastewater Treatment,Manufacture of Electric Transmission and Distribution Equipment,Industrial Waste Landfills,Is some CO2 collected on-site and used to manufacture other products and therefore not emitted from the affected manufacturing process unit(s)? (as reported under Subpart G or S),"Is some CO2 reported as emissions from the affected manufacturing process unit(s) under Subpart AA, G or P collected and transferred off-site or injected (as reported under Subpart PP)?",Does the facility employ continuous emissions monitoring? 
1004377,110043803578,121 REGIONAL DISPOSAL FACILITY,MELISSA,TX,75454,3820 SAM RAYBURN HIGHWAY,COLLIN COUNTY,33.30,-96.54,562212,HH,Waste,"199,011.75",,"199,011.75",,,,,,,,,,,,,,,,,,,,,,,,,,,,,,,,,,,,,,,,,,,,"199,011.75",,,,N,N,N
1010040,110070082056,15-18565/15-18662,Hazard,KY,40701,4200 S. Hwy 15,PERRY COUNTY,37.22,-83.16,212112,FF,Other,"118,204.50",,"118,204.50",,,,,,,,,,,,,,,,,,,,,,,,,,,,,,,,,,,,,,,,,,"118,204.50",,,,,,N,N,N
1010085,110055519176,15-19015,Hazard,KY,41701,1845 S. KY HWY 15,PERRY COUNTY,37.24,-83.18,212112,FF,Other,"55,872.50",,"55,872.50",,,,,,,,,,,,,,,,,,,,,,,,,,,,,,,,,,,,,,,,,,"55,872.50",,,,,,N,N,N
1000112,110019827286,23rd and 3rd,BROOKLYN,NY,11232,730 3rd Avenue,Kings,40.66,-74.00,221112,"C,D",Power Plants,"67,399.25","67,331.30",31.00,36.95,,,,,,,,,,132.00,"67,267.25",,,,,,,,,,,,,,,,,,,,,,,,,,,,,,,,,,,,N,N,N
1006394,110043803587,29-6 #2 Central Delivery Point,Blanco,NM,87412,,RIO ARRIBA COUNTY,36.75,-107.45,213112,C,Petroleum and Natural Gas Systems,"15,391.59","15,375.70",7.25,8.64,,,,,,,,,,"15,391.59",,,,,,,,,,,,,,,,,,,,,,,,,,,,,,,,,,,,,N,N,N
1002885,110007013150,30-5 Compressor Station,Aztec,NM,87410,,RIO ARRIBA COUNTY,36.81,-107.40,213112,C,Petroleum and Natural Gas Systems,"22,506.52","22,483.50",10.50,12.52,,,,,,,,,,"22,506.52",,,,,,,,,,,,,,,,,,,,,,,,,,,,,,,,,,,,,N,N,N
1002707,110041006041,31-6 Central Delivery Point,BLOOMFIELD,NM,87413,,RIO ARRIBA COUNTY,36.84,-107.42,213112,C,Petroleum and Natural Gas Systems,"52,646.75","52,592.50",24.75,29.50,,,,,,,,,,"52,646.75",,,,,,,,,,,,,,,,,,,,,,,,,,,,,,,,,,,,,N,N,N
1003742,110010392887,31st Street Landfill,WESTCHESTER,IL,60154,11700 W 31ST ST,COOK COUNTY,41.84,-87.92,562212,"C,HH",Waste,"92,696.60",186.60,"92,510.00",,,,,,,,,,,186.60,,,,,,,,,,,,,,,,,,,,,,,,,,,,,,,,,"92,510.00",,,,N,N,N
1002718,110043815725,32-7 Central Delivery Point,Blanco,NM,87412,,SAN JUAN COUNTY,36.93,-107.56,213112,C,Petroleum and Natural Gas Systems,"33,654.12","33,619.60",15.75,18.77,,,,,,,,,,"33,654.12",,,,,,,,,,,,,,,,,,,,,,,,,,,,,,,,,,,,,N,N,N
1002721,110070081839,32-8 #2 Central Delivery Point,Blanco,NM,87412,,SAN JUAN COUNTY,36.96,-107.66,213112,C,Petroleum and Natural Gas Systems,"40,868.40","40,826.20",19.25,22.95,,,,,,,,,,"40,868.40",,,,,,,,,,,,,,,,,,,,,,,,,,,,,,,,,,,,,N,N,N
1003188,110000599273,3M BROWNWOOD,BROWNWOOD,TX,76801,4501 HIGHWAY 377 SOUTH,BROWN COUNTY,31.67,-99.00,326113,"C,N",Minerals,"36,754.71","36,716.90",17.25,20.56,,,,,,,,,,"36,597.71",,,,,,,,,157.00,,,,,,,,,,,,,,,,,,,,,,,,,,,,N,N,N
1005043,110035810799,3M CO,MAPLEWOOD,MN,55144,,RAMSEY COUNTY,44.95,-93.00,541712,C,Other,"79,440.08","79,353.30",38.50,48.28,,,,,,,,,,"79,440.08",,,,,,,,,,,,,,,,,,,,,,,,,,,,,,,,,,,,,N,N,N
1003739,110000589159,3M CO - GUIN,GUIN,AL,35563,6675 US HIGHWAY 43,MARION COUNTY,33.97,-87.90,326113,"C,N",Minerals,"31,694.64","31,663.40",14.25,16.99,,,,,,,,,,"30,512.64",,,,,,,,,"1,182.00",,,,,,,,,,,,,,,,,,,,,,,,,,,,N,N,N
1007698,110000421776,3M CO - WAUSAU DOWNTOWN,WAUSAU,WI,54401,144 ROSECRANS ST,MARATHON COUNTY,44.95,-89.64,212313,C,Other,"22,926.66","22,903.10",10.75,12.81,,,,,,,,,,"22,926.66",,,,,,,,,,,,,,,,,,,,,,,,,,,,,,,,,,,,,N,N,N
1004206,110000367567,3M COMPANY,DECATUR,AL,35609,1400 STATE DOCKS RD.,MORGAN COUNTY,34.64,-87.04,325211,"C,L,OO","Chemicals,Industrial Gas Suppliers","47,000.29","44,678.00",21.00,25.03,74.00,,,,600.00,,2.26,"1,600.00",,"44,724.03",,,,,,,,"2,276.26",,,,,,,,,,,,,,,,,,,,,,,,,,,,,N,N,N
1006665,110013886875,3M CORDOVA,CORDOVA,IL,61242,22614 ROUTE 84 NORTH,ROCK ISLAND COUNTY,41.76,-90.28,325998,"C,L,OO","Chemicals,Industrial Gas Suppliers","889,484.74","28,764.30",13.50,16.39,"57,228.37","625,093.51","20,538.24","9,564.92","135,442.52","3,533.09",2.71,"9,287.20",,"28,794.19",,,,,,,,"860,690.55",,,,,,,,,,,,,,,,,,,,,,,,,,,,,N,N,N
1004836,110000423667,3M Cottage Grove Center - Site,Cottage Grove,MN,55016,10746 Innovation Rd,WASHINGTON COUNTY,44.79,-92.91,325998,"C,L,N,OO","Chemicals,Industrial Gas Suppliers,Minerals","45,416.31","30,613.90",18.25,41.12,"2,437.89","3,973.19","2,642.52",,"4,583.49",279.64,1.31,825.00,"1,956.50","29,702.27",,,,,,,,"14,743.04",971.00,,,,,,,,,,,,,,,,,,,,,,,,,,,,N,N,N
1003408,110040995199,3M INDUSTRIAL MINERAL PRODUCTS DIVISION,LITTLE ROCK,AR,72206,3110 WALTERS DRIVE,PULASKI COUNTY,34.71,-92.24,212399,C,Other,"24,870.36","24,844.60",11.75,14.01,,,,,,,,,,"24,870.36",,,,,,,,,,,,,,,,,,,,,,,,,,,,,,,,,,,,,N,N,N
1004914,110000425059,3M MAGNETIC TAPE MANUFACTURING DIVISION,HUTCHINSON,MN,55350,905-915 ADAMS STREET SOUTHEAST,MCLEOD COUNTY,44.88,-94.36,322222,C,Pulp and Paper,"36,316.76","36,279.50",17.00,20.26,,,,,,,,,,"36,316.76",,,,,,,,,,,,,,,,,,,,,,,,,,,,,,,,,,,,,N,N,N
1004804,110000443805,3M NEVADA PLANT,NEVADA,MO,64772,2120 E. AUSTIN,VERNON COUNTY,37.83,-94.33,326113,C,Other,"31,007.38","30,975.60",14.50,17.28,,,,,,,,,,"31,007.38",,,,,,,,,,,,,,,,,,,,,,,,,,,,,,,,,,,,,N,N,N
1007408,110055511780,4 West Mine,Dilliner,PA,15327,625 Bald Hill Church Road,GREENE COUNTY,39.76,-80.00,212112,FF,Other,"133,881.75",,"133,881.75",,,,,,,,,,,,,,,,,,,,,,,,,,,,,,,,,,,,,,,,,,"133,881.75",,,,,,N,N,N
1012037,110063753656,50 Buttes Gas Plant,Gillette,WY,82716,3669 South Hwy 50,CAMPBELL COUNTY,43.76,-105.79,213112,"C,W-PROC",Petroleum and Natural Gas Systems,"35,716.79","29,680.70","5,557.50",478.59,,,,,,,,,,"28,215.64",,,,,,,,,,,,,,,,,,,7501.144,,,,,,,,,,,,,,,,,,N,N,N
1001106,110040862527,48th Street Peaking Station,HOLLAND,MI,49423,491 E 48TH ST,Allegan,42.76,-86.09,221112,"C,D",Power Plants,"12,264.26","12,252.20",5.50,6.56,,,,,,,,,,8.50,"12,255.76",,,,,,,,,,,,,,,,,,,,,,,,,,,,,,,,,,,,N,N,N
1004680,110013945062,58TH ST LF (MAIN COUNTY LF),MIAMI,FL,33178,8831 NW 58TH ST,MIAMI-DADE COUNTY,25.83,-80.35,562212,HH,Waste,"84,936.75",,"84,936.75",,,,,,,,,,,,,,,,,,,,,,,,,,,,,,,,,,,,,,,,,,,,"84,936.75",,,,N,N,N
1000766,110019296509,59th Street,NEW YORK,NY,10019,850 12TH AVE,New York,40.77,-73.99,221330,C,Power Plants,"238,778.19","238,463.30",127.75,187.14,,,,,,,,,,"238,778.19",,,,,,,,,,,,,,,,,,,,,,,,,,,,,,,,,,,,,N,N,N
1007733,110041047505,69TH ST WWTP,HOUSTON,TX,77020,2525 SSGT MACARIO GARCIA DR,HARRIS COUNTY,29.76,-95.30,221320,C,Other,"26,395.60","26,368.20",12.50,14.90,,,,,,,,,,"26,395.60",,,,,,,,,,,,,,,,,,,,,,,,,,,,,,,,,,,,,N,N,N
1000767,110019296527,74th Street,NEW YORK,NY,10021,506 E 75TH ST,New York,40.77,-73.95,221330,C,Power Plants,"255,020.78","254,660.50",141.25,219.03,,,,,,,,,,"255,020.78",,,,,,,,,,,,,,,,,,,,,,,,,,,,,,,,,,,,,N,N,N
1001033,110044891150,A B Brown Generating Station,MOUNT VERNON,IN,47620,8511 WELBORN ROAD,Posey,37.91,-87.72,221112,D,Power Plants,"2,663,665.56","2,642,472.40","7,754.25","13,438.91",,,,,,,,,,,"2,663,665.56",,,,,,,,,,,,,,,,,,,,,,,,,,,,,,,,,,,,N,N,N
1012058,110067543732,"A.C.M.S., Inc.",Lake Panasoffkee,FL,33538,835 CR 529,SUMTER COUNTY,28.74,-82.09,562212,HH,Waste,"15,626.50",,"15,626.50",,,,,,,,,,,,,,,,,,,,,,,,,,,,,,,,,,,,,,,,,,,,"15,626.50",,,,N,N,N
1006009,110017888393,ABB Inc.,Mt. Pleasant,PA,15666,100 Distribution Circle,WESTMORELAND COUNTY,40.18,-79.58,335313,SS,Other,"10,898.40",,,,,,"10,898.40",,,,,,,,,,,,,,,,,,,,,,,,,,,,,,,,,,,,,,,,,,"10,898.40",,N,N,N
1002853,110017421226,ABBOTT NUTRITION,STURGIS,MI,49091,901 NORTH CENTERVILLE ROAD,ST. JOSEPH COUNTY,41.81,-85.43,311514,C,Other,"23,398.01","23,373.90",11.00,13.11,,,,,,,,,,"23,398.01",,,,,,,,,,,,,,,,,,,,,,,,,,,,,,,,,,,,,N,N,N
1002983,110018042562,ABBOTT PARK FACILITY,ABBOTT PARK,IL,60064,100 ABBOTT PARK RD,LAKE COUNTY,42.30,-87.89,424210,C,Other,"56,777.33","56,718.40",26.75,32.18,,,,,,,,,,"56,777.33",,,,,,,,,,,,,,,,,,,,,,,,,,,,,,,,,,,,,N,N,N
1007514,110007806188,ABBVIE LTD.,BARCELONETA,PR,00617,RD 2 KM 58.0,BARCELONETA MUNICIPIO,18.43,-66.57,325412,C,Chemicals,"95,561.37","95,237.90",95.50,227.97,,,,,,,,,,"95,561.37",,,,,,,,,,,,,,,,,,,,,,,,,,,,,,,,,,,,,N,N,N
1004511,110000366817,ABC COKE,TARRANT,AL,35217,ONE RAILROAD AVENUE,JEFFERSON COUNTY,33.58,-86.78,331111,"C,Q",Metals,"171,606.49","171,457.30",44.00,105.19,,,,,,,,,,"159,209.47",,,,,,,,,,,,"12,397.02",,,,,,,,,,,,,,,,,,,,,,,,,N,N,N
1005278,110033218159,ABENGOA BIOENERGY CORPORATION COLWICH ETHANOL PLANT,COLWICH,KS,67030,523 E UNION AVE,SEDGWICK COUNTY,37.79,-97.53,325193,C,Other,"7,714.42","7,706.20",3.75,4.47,,,,,,,,,4.90,"7,714.42",,,,,,,,,,,,,,,,,,,,,,,,,,,,,,,,,,,,,N,N,N
1005353,110038367228,ABERDEEN ENERGY LLC,MINA,SD,57451,13435 370TH AVENUE,EDMUNDS COUNTY,45.44,-98.79,325193,C,Other,"180,568.92","180,382.60",85.00,101.32,,,,,,,,,,"180,568.92",,,,,,,,,,,,,,,,,,,,,,,,,,,,,,,,,,,,,N,N,N
1006971,110064337123,ABERDEEN PROVING GROUND-Aberdeen Area & Edgewood Area,APG,MD,21005,4304 Susquehanna Ave,HARFORD COUNTY,39.40,-76.31,928110,C,Other,"69,918.52","69,814.20",40.25,64.07,,,,,,,,,,"69,918.52",,,,,,,,,,,,,,,,,,,,,,,,,,,,,,,,,,,,,N,N,N
1003091,110034769043,ABRAHAM COMPRESSOR STATION,CANADIAN,TX,79014,9835 US HWY 60,HEMPHILL COUNTY,35.77,-100.48,211111,C,Petroleum and Natural Gas Systems,"21,767.97","21,745.50",10.25,12.22,,,,,,,,,,"21,767.97",,,,,,,,,,,,,,,,,,,,,,,,,,,,,,,,,,,,,N,N,N
1002685,110043804087,AC 857 A,Offshore,TX,00000,,,26.30,-94.90,211111,"C,W-OFFSH",Petroleum and Natural Gas Systems,"275,627.37","245,766.90","29,640.25",220.22,,,,,,,,,,"230,839.25",,,,,,,,,,,,,,,,,,44788.12,,,,,,,,,,,,,,,,,,,N,N,N
1002627,110027236621,ABSOLUTE ENERGY LLC,ST ANSGAR (MONA),IA,50472,1372 STATELINE ROAD,MITCHELL COUNTY,43.50,-92.92,325193,"C,II","Other,Waste","178,561.37","178,273.00",186.75,101.62,,,,,,,,,405.00,"178,459.12",,,,,,,,,,,,,,,,,,,,,,,,,,,,,,,,,,102.25,,,N,N,N
1006529,110013921435,ACADIA PARISH POLICE JURY - ACADIA PARISH SANITARY LANDFILL,EGAN,LA,70531,611 PETAL RD,ACADIA PARISH,30.26,-92.53,562111,HH,Waste,"51,686.50",,"51,686.50",,,,,,,,,,,,,,,,,,,,,,,,,,,,,,,,,,,,,,,,,,,,"51,686.50",,,,N,N,N
1004761,110013812918,ACE ETHANOL LLC,STANLEY,WI,54768,815 WEST MAPLE STREET,CHIPPEWA COUNTY,44.96,-90.96,325193,"C,PP","Other,Suppliers of CO2","73,115.02","73,039.40",34.50,41.12,,,,,,,,,,"73,115.02",,,,,,,,,,,,,,,,,,,,,,,,,,,,,,,,,,,,,N,N,N
1005601,110007180709,ACME BRICK CO ELGIN PLANT,ELGIN,TX,78621,1776 OLD MCDADE RD,BASTROP COUNTY,30.33,-97.29,327121,C,Minerals,"58,615.68","58,555.40",27.50,32.78,,,,,,,,,,"58,615.68",,,,,,,,,,,,,,,,,,,,,,,,,,,,,,,,,,,,,N,N,N
1005046,110007177722,ACME GYPSUM FACILITY,QUANAH,TX,79252,4164 HIGHWAY 285,HARDEMAN COUNTY,34.32,-99.82,327420,C,Minerals,"35,616.52","35,579.80",16.75,19.97,,,,,,,,,,"35,616.52",,,,,,,,,,,,,,,,,,,,,,,,,,,,,,,,,,,,,N,N,N
1002731,110061855381,ADA COGENERATION,ADA,MI,49355,7575 FULTON STREET EAST,KENT COUNTY,42.96,-85.48,221112,C,Power Plants,"94,984.49","94,886.40",44.75,53.34,,,,,,,,,,"94,984.49",,,,,,,,,,,,,,,,,,,,,,,,,,,,,,,,,,,,,N,N,N
1003752,110040089604,"ADA Carbon Solutions (Red River), LLC",Coushatta,LA,71019,201 Red River Mine Road,RED RIVER PARISH,32.01,-93.39,325998,C,Chemicals,"188,762.67","188,753.90",4.00,4.77,,,,,,,,,,"188,762.67",,,,,,,,,,,,,,,,,,,,,,,,,,,,,,,,,,,,,N,N,N
1003422,110008978552,ADKINS ENERGY LLC,LENA,IL,61048,4350 WEST GALENA ROAD,STEPHENSON COUNTY,42.36,-89.80,325193,C,Other,"76,422.31","76,343.40",36.00,42.91,,,,,,,,,,"76,422.31",,,,,,,,,,,,,,,,,,,,,,,,,,,,,,,,,,,,,N,N,N
1002154,110013325507,ADM - MANKATO,MANKATO,MN,56001,2019 3RD AVENUE,BLUE EARTH COUNTY,44.19,-94.00,311225,C,Other,"143,286.47","142,382.30",333.50,570.67,,,,,,,,,,"143,286.47",,,,,,,,,,,,,,,,,,,,,,,,,,,,,,,,,,,,,N,N,N
1006208,110000415630,ADM CORN PROCESSING,CLINTON,IA,52732,1251 BEAVER CHANNEL PARKWAY,CLINTON COUNTY,41.82,-90.21,311221,"C,TT","Other,Waste","2,151,829.93","2,135,193.00","6,435.50","10,201.43",,,,,,,,,"86,320.00","2,151,366.68",,,,,,,,,,,,,,,,,,,,,,,,,,,,,,,,,,,,463.25,N,N,N
1006047,110010507503,ADM CORN PROCESSING,CEDAR RAPIDS,IA,52404,1350 WACONIA AVENUE SOUTHWEST,LINN COUNTY,41.92,-91.69,311221,"C,II","Other,Waste","3,048,420.42","3,026,186.20","9,394.00","12,840.22",,,,,,,,,"53,630.30","3,046,512.17",,,,,,,,,,,,,,,,,,,,,,,,,,,,,,,,,,"1,908.25",,,N,N,N
1010610,110033021888,ADM Deerfield,Deerfield,MO,64741,17700 South Highway T,VERNON COUNTY,37.81,-94.59,311222,C,Other,"34,167.17","34,132.10",16.00,19.07,,,,,,,,,,"34,167.17",,,,,,,,,,,,,,,,,,,,,,,,,,,,,,,,,,,,,N,N,N
1011855,110002319982,ADM Fostoria,Fostoria,OH,44830,608 FINDLAY ROAD,HANCOCK COUNTY,41.15,-83.43,311222,C,Other,"26,753.80","26,726.40",12.50,14.90,,,,,,,,,,"26,753.80",,,,,,,,,,,,,,,,,,,,,,,,,,,,,,,,,,,,,N,N,N
1000376,110040894761,ADM QUINCY,QUINCY,IL,62305,2100 GARDNER EXPRESSWAY,ADAMS COUNTY,39.90,-91.41,311222,C,Other,"195,047.94","193,977.90",397.75,672.29,,,,,,,,,,"195,047.94",,,,,,,,,,,,,,,,,,,,,,,,,,,,,,,,,,,,,N,N,N
1006080,110027360399,ADM SOUTHERN CELLULOSE PROD.IN,CHATTANOOGA,TN,37410,103 W 45TH ST,HAMILTON COUNTY,35.00,-85.32,322110,C,Pulp and Paper,"24,860.40","24,833.50",12.00,14.90,,,,,,,,,,"24,860.40",,,,,,,,,,,,,,,,,,,,,,,,,,,,,,,,,,,,,N,N,N
1000034,110067425799,ADM SOYBEAN PROCESSING - DES MOINES,DES MOINES,IA,50313,1935 EAST EUCLID AVENUE,POLK COUNTY,41.63,-93.58,311222,C,Other,"144,115.25","143,046.40",391.50,677.35,,,,,,,,,,"144,115.25",,,,,,,,,,,,,,,,,,,,,,,,,,,,,,,,,,,,,N,N,N
1011961,110012384561,ADM Valdosta,Valdosta,GA,31601,1841 Clay Road,LOWNDES COUNTY,30.83,-83.25,311222,C,Other,"29,482.15","27,036.20",360.25,"2,085.70",,,,,,,,,"181,042.00","29,482.15",,,,,,,,,,,,,,,,,,,,,,,,,,,,,,,,,,,,,N,N,N
1001991,110001300020,ADRIAN LANDFILL,ADRIAN,MI,49221,1970 N OGDEN HWY,LENAWEE COUNTY,41.89,-83.99,562212,HH,Waste,"14,142.25",,"14,142.25",,,,,,,,,,,,,,,,,,,,,,,,,,,,,,,,,,,,,,,,,,,,"14,142.25",,,,N,N,N
1001633,110070081800,ADS-CEDAR HILL LANDFILL,RAGLAND,AL,35131,1319 NO BUSINESS CREEK ROAD,ST. CLAIR COUNTY,33.68,-86.25,562212,HH,Waste,"97,230.50",,"97,230.50",,,,,,,,,,,,,,,,,,,,,,,,,,,,,,,,,,,,,,,,,,,,"97,230.50",,,,N,N,N
1001636,110013947453,ADS-PECAN ROW-EVERGREEN LANDFILLS,VALDOSTA,GA,31601,2995 WETHERINGTON LANE,LOWNDES COUNTY,30.81,-83.36,562212,HH,Waste,"137,389.00",,"137,389.00",,,,,,,,,,,,,,,,,,,,,,,,,,,,,,,,,,,,,,,,,,,,"137,389.00",,,,N,N,N
1006790,110040628559,ADS-STAR RIDGE LANDFILL,MOODY,AL,35004,3301 ACMAR ROAD,ST. CLAIR COUNTY,33.61,-86.52,562212,HH,Waste,"90,617.50",,"90,617.50",,,,,,,,,,,,,,,,,,,,,,,,,,,,,,,,,,,,,,,,,,,,"90,617.50",,,,N,N,N
1002094,110034159005,ADS/MCLEAN COUNTY LANDFILL,BLOOMINGTON,IL,61704,2105 W OAKLAND AVE,MCLEAN COUNTY,40.47,-89.03,562212,"C,HH",Waste,"24,335.75",14.00,"24,321.75",,,,,,,,,,,14.00,,,,,,,,,,,,,,,,,,,,,,,,,,,,,,,,,"24,321.75",,,,N,N,N
1001845,110043581317,ADVANCED DISPOSAL CRANBERRY CREEK LANDFILL LLC,WISCONSIN RAPIDS,WI,54495,2510 ENGEL ROAD,WOOD COUNTY,44.41,-89.85,562212,"C,HH",Waste,"35,228.75",88.00,"35,140.75",,,,,,,,,,11.80,88.00,,,,,,,,,,,,,,,,,,,,,,,,,,,,,,,,,"35,140.75",,,,N,N,N
1003038,110006726123,"ADVANCED DISPOSAL MAPLE HILL LANDFILL, LLC",MACON,MO,63552,31226 INTREPID ROAD,MACON COUNTY,39.73,-92.54,562212,"C,HH",Waste,"27,558.75",68.50,"27,490.25",,,,,,,,,,,68.50,,,,,,,,,,,,,,,,,,,,,,,,,,,,,,,,,"27,490.25",,,,N,N,N
1006979,110017987589,ADVANCED DISPOSAL OAK RIDGE LANDFILL,BALWIN,MO,63021,1741 SULPHUR SPRING ROAD,ST. LOUIS COUNTY,38.56,-90.53,562212,HH,Waste,"8,606.00",,"8,606.00",,,,,,,,,,,,,,,,,,,,,,,,,,,,,,,,,,,,,,,,,,,,"8,606.00",,,,N,N,N
1001637,110012142733,ADVANCED DISPOSAL ORCHARD HILLS LANDFILL INC,DAVIS JUNCTION,IL,61020,8290 HIGHWAY 251,OGLE COUNTY,42.14,-89.09,562212,"C,HH",Waste,"168,657.45",52.20,"168,605.25",,,,,,,,,,,52.20,,,,,,,,,,,,,,,,,,,,,,,,,,,,,,,,,"168,605.25",,,,N,N,N
1006963,110018431320,ADVANCED DISPOSAL VALLEY VIEW LANDFILL INC,DECATUR,IL,62522,1363 BEAR RD,MACON COUNTY,39.82,-89.04,562212,"C,HH",Waste,"28,856.80",44.80,"28,812.00",,,,,,,,,,,44.80,,,,,,,,,,,,,,,,,,,,,,,,,,,,,,,,,"28,812.00",,,,N,N,N
1000627,110000342460,ADVANSIX INC - CHESTERFIELD PLANT,CHESTER,VA,23836,4101 BERMUDA HUNDRED RD,CHESTERFIELD COUNTY,37.34,-77.29,325211,C,Other,"49,418.10","49,363.70",24.00,30.40,,,,,,,,,,"49,418.10",,,,,,,,,,,,,,,,,,,,,,,,,,,,,,,,,,,,,N,N,N
1000630,110000620221,ADVANSIX INCORPORATED - HOPEWELL,HOPEWELL,VA,23860,905 EAST RANDOLPH ROAD,HOPEWELL CITY,37.18,-77.16,325199,"C,G,PP","Chemicals,Suppliers of CO2","974,277.29","973,824.70",197.50,255.09,,,,,,,,,"34,938.00","359,039.39",,,,"615,237.90",,,,,,,,,,,,,,,,,,,,,,,,,,,,,,,,,N,Y,N
1005310,110012141805,AES - PUERTO RICO COGENERATION PLANT,GUAYAMA,PR,00785,"KM 142, RTE. #3 BO. JOBOS",GUAYAMA MUNICIPIO,17.95,-66.15,221112,C,Power Plants,"3,433,759.14","3,408,619.30","9,194.75","15,945.09",,,,,,,,,,"3,433,759.14",,,,,,,,,,,,,,,,,,,,,,,,,,,,,,,,,,,,,N,N,N
1001444,110000522113,AES Alamitos,LONG BEACH,CA,90803,690 N STUDEBAKER ROAD,Los Angeles,33.77,-118.10,221112,D,Power Plants,"684,931.61","684,236.20",317.25,378.16,,,,,,,,,,,"684,931.61",,,,,,,,,,,,,,,,,,,,,,,,,,,,,,,,,,,,N,N,N
1001222,110000329083,AES Beaver Valley LLC,MONACA,PA,15061,394 FRANKFORT RD,Beaver,40.66,-80.36,221112,D,Power Plants,"27,740.13","27,524.60",78.75,136.78,,,,,,,,,,,"27,740.13",,,,,,,,,,,,,,,,,,,,,,,,,,,,,,,,,,,,N,N,N
1005972,110027164164,AES HAWAII INC,KAPOLEI,HI,96707,91-086 KAOMI LP,HONOLULU COUNTY,21.30,-158.11,221112,C,Power Plants,"1,643,792.71","1,632,362.00","4,182.75","7,247.96",,,,,,,,,,"1,643,792.71",,,,,,,,,,,,,,,,,,,,,,,,,,,,,,,,,,,,,N,N,N
1001447,110002921713,AES Huntington Beach,HUNTINGTON BEACH,CA,92646,21730 NEWLAND ST,Orange,33.64,-117.98,221112,D,Power Plants,"432,232.95","431,794.00",200.25,238.70,,,,,,,,,,,"432,232.95",,,,,,,,,,,,,,,,,,,,,,,,,,,,,,,,,,,,N,N,N
1001450,110014322170,AES Redondo Beach,REDONDO BEACH,CA,90277,1100 N HARBOR DRIVE,Los Angeles,33.85,-118.40,221112,D,Power Plants,"318,386.97","318,063.10",147.75,176.12,,,,,,,,,,,"318,386.97",,,,,,,,,,,,,,,,,,,,,,,,,,,,,,,,,,,,N,N,N
1001223,110000551055,AES Warrior Run,CUMBERLAND,MD,21502,11600 MEXICO FARMS RD SE,Allegany,39.59,-78.75,221112,"C,D,PP","Power Plants,Suppliers of CO2","1,324,825.02","1,314,209.90","3,883.00","6,732.12",,,,,,,,,,173.10,"1,324,651.92",,,,,,,,,,,,,,,,,,,,,,,,,,,,,,,,,,,,N,N,N
1003853,110000438884,AFTON CHEMICAL CORP,SAUGET,IL,62201,501 MONSANTO AVE.,ST. CLAIR COUNTY,38.60,-90.17,324191,C,Petroleum and Natural Gas Systems,"49,461.26","49,410.30",23.25,27.71,,,,,,,,,,"49,461.26",,,,,,,,,,,,,,,,,,,,,,,,,,,,,,,,,,,,,N,N,N
1007551,110007383919,AG Energy,Ogdensburg,NY,13669,21 Entrance Avenue,ST. LAWRENCE COUNTY,44.73,-75.44,221112,"C,D",Power Plants,"9,454.46","9,444.60",4.50,5.36,,,,,,,,,,"9,454.46",0.00,,,,,,,,,,,,,,,,,,,,,,,,,,,,,,,,,,,,N,N,N
1002069,110018869303,AG PROCESSING INC,EMMETSBURG,IA,50536,4739 380TH ST,PALO ALTO COUNTY,43.10,-94.65,311222,C,Other,"25,088.16","25,062.40",11.75,14.01,,,,,,,,,,"25,088.16",,,,,,,,,,,,,,,,,,,,,,,,,,,,,,,,,,,,,N,N,N
1002070,110000414365,AG PROCESSING INC A COOP-MANNING,MANNING,IA,51455,1000 300TH STREET,CARROLL COUNTY,41.92,-95.07,311222,C,Other,"18,891.93","18,872.20",9.00,10.73,,,,,,,,,,"18,891.93",,,,,,,,,,,,,,,,,,,,,,,,,,,,,,,,,,,,,N,N,N
1006054,110011273022,AG PROCESSING INC-EAGLE GROVE,EAGLE GROVE,IA,50533,500 NORTH COMMERCIAL AVENUE,WRIGHT COUNTY,42.67,-93.90,311222,C,Other,"131,086.10","130,098.20",361.50,626.40,,,,,,,,,,"131,086.10",,,,,,,,,,,,,,,,,,,,,,,,,,,,,,,,,,,,,N,N,N
1002291,110000427093,AG PROCESSING INCORPORATED A COOPERATIVE,DAWSON,MN,56232,800 DIAGONAL STREET,LAC QUI PARLE COUNTY,44.93,-96.06,311222,C,Other,"32,544.73","32,511.30",15.25,18.18,,,,,,,,,,"32,544.73",,,,,,,,,,,,,,,,,,,,,,,,,,,,,,,,,,,,,N,N,N
1007333,110003253121,AGC FLAT GLASS N AMERICA INC,RICHMOND,KY,40475,201 DUNCANNON LANE,MADISON COUNTY,37.70,-84.27,327211,"C,N",Minerals,"130,879.05","130,810.00",31.50,37.55,,,,,,,,,,"65,474.05",,,,,,,,,"65,405.00",,,,,,,,,,,,,,,,,,,,,,,,,,,,N,N,N
1004631,110000445322,AGC FLAT GLASS NORTH AMERICA SPRING HILL PLANT,SPRING HILL,KS,66083,20400 NORTH WEBSTER STREET,JOHNSON COUNTY,38.76,-94.83,327211,"C,N",Minerals,"100,719.08","100,645.10",33.75,40.23,,,,,,,,,,"71,900.98",,,,,,,,,"28,818.10",,,,,,,,,,,,,,,,,,,,,,,,,,,,N,N,N
1005824,110000546080,AGC-GREENLAND FLATGLASS PLANT,CHURCH HILL,TN,37642,600 AFG ROAD,HAWKINS COUNTY,36.50,-82.78,327211,"C,N",Minerals,"129,688.14","129,618.90",30.50,38.74,,,,,,,,,,"70,877.64",,,,,,,,,"58,810.50",,,,,,,,,,,,,,,,,,,,,,,,,,,,N,N,N
1002067,110000448472,AGP SOY/CORN PROCESSING,HASTINGS,NE,68901,2801 E 7TH ST,ADAMS COUNTY,40.59,-98.34,311222,C,Other,"153,707.27","152,604.90",404.75,697.62,,,,,,,,,,"153,707.27",,,,,,,,,,,,,,,,,,,,,,,,,,,,,,,,,,,,,N,N,N
1005284,110000427020,AGRI ENERGY LLC,LUVERNE,MN,56156,502 SOUTH WALNUT AVENUE,ROCK COUNTY,43.65,-96.22,325199,"C,II","Chemicals,Waste",327.45,320.90,6.25,0.30,,,,,,,,,,321.45,,,,,,,,,,,,,,,,,,,,,,,,,,,,,,,,,,6.00,,,N,N,N
1002380,110056955576,AGRIUM US BORGER NITROGEN OPERATIONS,BORGER,TX,79007,9201 FM 1551,HUTCHINSON COUNTY,35.64,-101.42,325311,"C,G,PP","Chemicals,Suppliers of CO2","828,959.47","828,581.90",172.25,205.32,,,,,,,,,,"366,010.07",,,,"462,949.40",,,,,,,,,,,,,,,,,,,,,,,,,,,,,,,,,Y,Y,N
1004236,110007030186,AGRIUM US INC - KFO,KENNEWICK,WA,99337,227515 E BOWLES ROAD,BENTON COUNTY,46.17,-119.02,325311,"C,U,V",Chemicals,"155,888.04","10,730.60",0.75,"145,156.69",,,,,,,,,,"1,827.14",,,,,,,,,,,,,,,,"8,905.10","145,155.80",,,,,,,,,,,,,,,,,,,,N,N,N
1001919,110035869165,AHN Heartland Ingredients,EDDYVILLE,IA,52553,1116 Highway 137,MONROE COUNTY,41.14,-92.65,311119,C,Other,"116,558.61","116,438.60",54.75,65.26,,,,,,,,,,"116,558.61",,,,,,,,,,,,,,,,,,,,,,,,,,,,,,,,,,,,,N,N,N
1006430,110018885731,"AIR LIQUID LARGE INDUSTRIES US, LP",EL SEGUNDO,CA,90245,324 W EL SEGUNDO BLVD,LOS ANGELES COUNTY,33.91,-118.40,325120,P,Chemicals,"550,717.40","550,717.40",,,,,,,,,,,,,,,,,,,,,,,"550,717.40",,,,,,,,,,,,,,,,,,,,,,,,,,N,N,N
1003724,110005191078,AIR LIQUIDE - CORPUS CHRISTI SMR,CORPUS CHRISTI,TX,78407,5880 UP RIVER ROAD,NUECES COUNTY,27.81,-97.47,325120,P,Chemicals,"478,965.40","478,965.40",,,,,,,,,,,,,,,,,,,,,,,"478,965.40",,,,,,,,,,,,,,,,,,,,,,,,,,N,N,N
1003730,110005184497,AIR LIQUIDE - FREEPORT HYCO PLANT,FREEPORT,TX,77541,2398 VICTORIA ROAD,BRAZORIA COUNTY,28.98,-95.38,325120,"C,P",Chemicals,"172,195.80","172,181.00",6.75,8.05,,,,,,,,,,"14,238.90",,,,,,,,,,,"157,956.90",,,,,,,,,,,,,,,,,,,,,,,,,,N,N,N
1003780,110014407846,AIR LIQUIDE - PORT NECHES ASU COGENERATION PLANT,PORT NECHES,TX,77651,2121 PARK STREET,JEFFERSON COUNTY,29.98,-93.95,325120,C,Chemicals,"212,034.25","211,815.60",99.75,118.90,,,,,,,,,,"212,034.25",,,,,,,,,,,,,,,,,,,,,,,,,,,,,,,,,,,,,N,N,N
1003910,110056955610,AIR LIQUIDE AMERICA CORP,LONGVIEW,TX,75602,2292 Callahan Rd,HARRISON COUNTY,32.45,-94.69,325120,P,Chemicals,"495,416.20","495,416.20",,,,,,,,,,,,,,,,,,,,,,,"495,416.20",,,,,,,,,,,,,,,,,,,,,,,,,,N,N,N
1006115,110021175011,AIR LIQUIDE AMERICA CORP.,GEISMAR,LA,70734,36597 HWY 30,ASCENSION PARISH,30.21,-90.99,325120,C,Chemicals,"459,081.67","458,608.20",216.00,257.47,,,,,,,,,,"459,081.67",,,,,,,,,,,,,,,,,,,,,,,,,,,,,,,,,,,,,N,N,N
1003591,110021175011,AIR LIQUIDE GEISMAR UTILITY SERVICES,GEISMAR,LA,70734,36183 HWY 30,ASCENSION PARISH,30.21,-90.99,221330,C,Power Plants,"136,964.98","136,823.60",64.50,76.88,,,,,,,,,,"136,964.98",,,,,,,,,,,,,,,,,,,,,,,,,,,,,,,,,,,,,N,N,N
1003748,110041623641,AIR LIQUIDE LARGE INDUSTRIES US LP - RODEO HYDROGEN PLANT,RODEO,CA,94572,1391 SAN PABLO AVE,CONTRA COSTA COUNTY,38.05,-122.26,325120,P,Chemicals,"817,993.80","817,993.80",,,,,,,,,,,,,,,,,,,,,,,"817,993.80",,,,,,,,,,,,,,,,,,,,,,,,,,N,N,N
1003013,110017619861,AIR PRODUCTS & CHEMICAL INC - LAKE CHARLES FACILITY,WESTLAKE,LA,70669,102 TROUSDALE RD,CALCASIEU PARISH,30.24,-93.28,325120,P,Chemicals,"801,530.80","801,530.80",,,,,,,,,,,,,,,,,,,,,,,"801,530.80",,,,,,,,,,,,,,,,,,,,,,,,,,N,N,N
1002754,110022828813,AIR PRODUCTS & CHEMICALS INC - CONVENT SMR,CONVENT,LA,70723,10759 CONVENT WAY,ST. JAMES PARISH,30.11,-90.88,325120,P,Chemicals,"700,490.60","700,490.60",,,,,,,,,,,,,,,,,,,,,,,"700,490.60",,,,,,,,,,,,,,,,,,,,,,,,,,N,N,N
1010475,110055376301,AJAX PLANT,Wheeler,TX,79014,16600 CR N,WHEELER COUNTY,35.55,-100.12,211112,"C,W-PROC",Petroleum and Natural Gas Systems,"57,428.89","52,261.20","5,143.25",24.44,,,,,,,,,,"43,687.54",,,,,,,,,,,,,,,,,,,13741.35,,,,,,,,,,,,,,,,,,N,N,N
1002698,110006020304,AIR PRODUCTS & CHEMICALS INC - Geismar SMR,GEISMAR,LA,70734,8013 HWY 3251,ASCENSION PARISH,30.18,-90.99,325120,"P,PP","Chemicals,Suppliers of CO2","62,556.30","62,556.30",,,,,,,,,,,,,,,,,,,,,,,"62,556.30",,,,,,,,,,,,,,,,,,,,,,,,,,N,Y,N
1003009,110000449113,AIR PRODUCTS & CHEMICALS INC - INDUSTRIAL GAS PRODUCTION FACILITY,NEW ORLEANS,LA,70129,14700 INTRACOASTAL DRIVE,ORLEANS PARISH,30.03,-89.90,325120,"C,P",Chemicals,"225,715.84","225,713.10",1.25,1.49,,,,,,,,,,"3,061.14",,,,,,,,,,,"222,654.70",,,,,,,,,,,,,,,,,,,,,,,,,,N,N,N
1002121,110000483227,AIR PRODUCTS & CHEMICALS INC MARTINEZ WATERFRONT ROAD,MARTINEZ,CA,94553,110 WATERFRONT RD,CONTRA COSTA COUNTY,38.03,-122.08,325120,P,Chemicals,"742,219.10","742,219.10",,,,,,,,,,,,,,,,,,,,,,,"742,219.10",,,,,,,,,,,,,,,,,,,,,,,,,,N,N,N
1002122,110070131948,"AIR PRODUCTS & CHEMICALS, INC, Tesoro Martinez",MARTINEZ,CA,94553,,CONTRA COSTA COUNTY,38.03,-122.07,325120,P,Chemicals,"196,659.19","196,643.30",7.25,8.64,,,,,,,,,,,,,,,,,,,,,"196,659.19",,,,,,,,,,,,,,,,,,,,,,,,,,N,N,N
1003129,110033247172,AKER PLANT,STREETMAN,TX,75859,261 FCR 181,FREESTONE COUNTY,31.91,-96.23,211111,"C,PP,W-PROC","Petroleum and Natural Gas Systems,Suppliers of CO2","40,335.50","39,176.20","1,137.25",22.05,,,,,,,,,,"38,681.40",,,,,,,,,,,,,,,,,,,1654.098,,,,,,,,,,,,,,,,,,N,N,N
1005809,110063668277,AIR PRODUCTS AND CHEMICALS INC - CATLETTSBURG HYDROGEN PLANT,CATLETTSBURG,KY,41129,11631 US Route 23 ,BOYD COUNTY,38.38,-82.60,325120,P,Chemicals,"221,255.80","221,255.80",,,,,,,,,,,,,,,,,,,,,,,"221,255.80",,,,,,,,,,,,,,,,,,,,,,,,,,N,N,N
1002727,110033135328,AIR PRODUCTS AND CHEMICALS INC - GARYVILLE,GARYVILLE,LA,70051,4663 W AIRLINE HWY ,ST. JOHN THE BAPTIST PARISH,30.06,-90.59,325120,P,Chemicals,"916,355.00","916,355.00",,,,,,,,,,,,,,,,,,,,,,,"916,355.00",,,,,,,,,,,,,,,,,,,,,,,,,,N,N,N
1002123,110000750358,AIR PRODUCTS AND CHEMICALS INCORPORATED,SACRAMENTO,CA,95826,5025 83RD STREET,SACRAMENTO COUNTY,38.53,-121.40,325120,P,Chemicals,"44,246.30","44,246.30",,,,,,,,,,,,,,,,,,,,,,,"44,246.30",,,,,,,,,,,,,,,,,,,,,,,,,,N,N,N
1002430,110012710423,AIR PRODUCTS BAYTOWN PLANT,BAYTOWN,TX,77520,5503 WEST BAKER ROAD,HARRIS COUNTY,29.76,-95.02,325120,"C,P",Chemicals,"342,308.90","342,267.80",18.75,22.35,,,,,,,,,,"100,310.00",,,,,,,,,,,"241,998.90",,,,,,,,,,,,,,,,,,,,,,,,,,N,N,N
1002257,110002305443,AIR PRODUCTS CARSON HYDROGEN PLANT,CARSON,CA,90810,23300 SOUTH ALAMEDA STREET,LOS ANGELES COUNTY,33.81,-118.23,325120,P,Chemicals,"672,737.20","672,737.20",,,,,,,,,,,,,,,,,,,,,,,"672,737.20",,,,,,,,,,,,,,,,,,,,,,,,,,N,N,N
1002435,110000476084,AIR PRODUCTS WILMINGTON HYDROGEN PLANT,WILMINGTON,CA,90744,700 HENRY FORD AVENUE,LOS ANGELES COUNTY,33.78,-118.24,325120,P,Chemicals,"632,469.67","631,881.20",174.25,414.22,,,,,,,,,,,,,,,,,,,,,"632,469.67",,,,,,,,,,,,,,,,,,,,,,,,,,N,N,N
1000274,110000392557,AK Steel Corporation - Middletown,MIDDLETOWN,OH,45043,1801 CRAWFORD STREET,Butler,39.50,-84.39,331111,"C,Q",Metals,"4,485,150.39","4,482,940.30",800.25,"1,409.84",,,,,,,,,,"3,102,227.03",,,,,,,,,,,,"1,382,923.36",,,,,,,,,,,,,,,,,,,,,,,,,N,N,N
1005615,110043800553,AK Steel Corporation West Works,Ashland,KY,41101,170 Armco Road,BOYD COUNTY,38.50,-82.67,331111,"C,Q",Metals,"1,337,116.35","1,336,830.60",40.50,245.25,,,,,,,,,,"1,162,038.78",,,,,,,,,,,,"175,077.58",,,,,,,,,,,,,,,,,,,,,,,,,N,N,N
1006088,110006219733,AKRON REGIONAL LANDFILL *,AKRON,OH,44313,1585 HARDY ROAD,SUMMIT COUNTY,41.15,-81.56,562212,HH,Waste,"3,591.50",,"3,591.50",,,,,,,,,,,,,,,,,,,,,,,,,,,,,,,,,,,,,,,,,,,,"3,591.50",,,,N,N,N
1005149,110000594642,AL CORN CLEAN FUEL,CLAREMONT,MN,55924,797 5th Street,DODGE COUNTY,44.05,-93.02,325193,"C,II,PP","Other,Suppliers of CO2,Waste","71,172.13","71,037.20",95.00,39.93,,,,,,,,,,"71,110.63",,,,,,,,,,,,,,,,,,,,,,,,,,,,,,,,,,61.50,,,N,N,N
1000129,110012143304,AL Sandersville,WARTHEN,GA,31094,1600 MILLS LINDSEY SCHOOL ROAD,Washington,33.12,-82.86,221112,D,Power Plants,"4,604.98","4,600.60",2.00,2.38,,,,,,,,,,,"4,604.98",,,,,,,,,,,,,,,,,,,,,,,,,,,,,,,,,,,,N,N,N
1004823,110002442438,AL TURI LANDFILL & LFGTE FACILITY,GOSHEN,NY,10924,73 HARTLEY ROAD,ORANGE COUNTY,41.41,-74.37,562212,"C,HH",Waste,"22,486.95",23.20,"22,463.75",,,,,,,,,,,23.20,,,,,,,,,,,,,,,,,,,,,,,,,,,,,,,,,"22,463.75",,,,N,N,N
1007917,110000589612,"ALABAMA RIVER CELLULOSE, LLC",PERDUE HILL,AL,36470,2373 LENA LANDEGGER HWY,MONROE COUNTY,31.58,-87.49,322110,"AA,C,TT","Pulp and Paper,Waste","363,902.22","184,743.50","173,135.25","6,023.47",,,,,,,,,"2,256,971.80","52,191.71",,,,,,,,,,,,,,,,,,,,,,,,,,,"140,291.76",,,,,,,,,"171,418.75",N,N,N
1007272,110000359068,ALADDIN MILLS - ANTIOCH RD PLA NT,DALTON,GA,30720,2001 ANTIOCH ROAD,WHITFIELD COUNTY,34.73,-84.95,314110,C,Other,"43,488.38","43,443.40",20.25,24.73,,,,,,,,,,"43,488.38",,,,,,,,,,,,,,,,,,,,,,,,,,,,,,,,,,,,,N,N,N
1006276,110037939737,ALBANY LANDFILL,ALBANY,NY,12205,525 RAPP RD,ALBANY COUNTY,42.70,-73.85,562212,HH,Waste,"156,346.50",,"156,346.50",,,,,,,,,,,,,,,,,,,,,,,,,,,,,,,,,,,,,,,,,,,,"156,346.50",,,,N,N,N
1003402,110056955987,ALBEMARLE CORPORATION HOUSTON PLANT,PASADENA,TX,77503,2500 N. SOUTH ST.,HARRIS COUNTY,29.74,-95.17,325199,C,Chemicals,"69,219.14","69,147.90",32.50,38.74,,,,,,,,,,"69,219.14",,,,,,,,,,,,,,,,,,,,,,,,,,,,,,,,,,,,,N,N,N
1004307,110000743508,ALBEMARLE CORPORATION-SOUTH PLANT,MAGNOLIA,AR,71753,2270 HWY 79 SOUTH OF MAGNOLIA,COLUMBIA COUNTY,33.18,-93.22,325188,C,Chemicals,"79,732.50","79,650.30",37.50,44.70,,,,,,,,,,"79,732.50",,,,,,,,,,,,,,,,,,,,,,,,,,,,,,,,,,,,,N,N,N
1001877,110000602045,ALCOA INC - WARRICK OPERATIONS,NEWBURGH,IN,47629,,WARRICK COUNTY,37.92,-87.33,331312,"C,D,F","Metals,Power Plants","6,827,547.91","6,628,664.20","17,756.50","30,743.47",,"150,383.74",,,,,,,,"167,621.17","6,034,611.90",,"625,314.84",,,,,,,,,,,,,,,,,,,,,,,,,,,,,,,,,,N,N,N
1003562,110040947820,ALCOA INTALCO WORKS,FERNDALE,WA,98248,4050 MOUNTAIN VIEW RD.,WHATCOM COUNTY,48.85,-122.71,331312,"C,F,TT","Metals,Waste","1,195,785.66","418,042.30","10,479.75",33.67,,"767,229.93",,,,,,,,"59,936.72",,,"1,125,397.43",,,,,,,,,,,,,,,,,,,,,,,,,,,,,,,,,"10,451.50",N,N,N
1005887,110037924486,ALLIANCE COMPRESSOR STATION,JUSTIN,TX,76247,12495 HWY 114,DENTON COUNTY,33.03,-97.35,211112,"C,W-PROC",Petroleum and Natural Gas Systems,"63,911.62","60,161.00","3,739.00",11.62,,,,,,,,,,"20,463.97",,,,,,,,,,,,,,,,,,,43447.65,,,,,,,,,,,,,,,,,,N,N,N
1000635,110000491156,ALCOA WENATCHEE LLC,MALAGA,WA,98828,6200 MALAGA HIGHWAY,CHELAN COUNTY,47.36,-120.13,331312,"C,F",Metals,"329,047.87","254,028.90",13.75,16.39,,"74,988.83",,,,,,,,"28,955.74",,,"300,092.13",,,,,,,,,,,,,,,,,,,,,,,,,,,,,,,,,,N,N,N
1003201,110000606997,ALCOA WORLD ALUMINA ATLANTIC,POINT COMFORT,TX,77978,,CALHOUN COUNTY,28.65,-96.56,331311,"C,TT","Metals,Waste","959,990.61","941,511.60","17,943.50",535.51,,,,,,,,,,"942,492.86",,,,,,,,,,,,,,,,,,,,,,,,,,,,,,,,,,,,"17,497.75",N,N,N
1003147,110034135264,ALCOA-MARYVILLE-BLOUNT COUNTY LANDFILL,Friendsville,TN,37737,240 Long Powers Road,BLOUNT COUNTY,35.74,-84.06,562212,HH,Waste,"44,551.00",,"44,551.00",,,,,,,,,,,,,,,,,,,,,,,,,,,,,,,,,,,,,,,,,,,,"44,551.00",,,,N,N,N
1006045,110058164187,ALERIS ROLLED PRODUCTS INC,LEWISPORT,KY,42351,1372 STATE ROAD 1957,HANCOCK COUNTY,37.95,-86.85,331314,C,Metals,"178,364.53","178,180.40",84.00,100.13,,,,,,,,,,"178,364.53",,,,,,,,,,,,,,,,,,,,,,,,,,,,,,,,,,,,,N,N,N
1004335,110043796942,ALL PURPOSE LANDFILL,SANTA CLARA,CA,95050,5401 Lafayette Street,SANTA CLARA COUNTY,37.41,-121.97,562212,HH,Waste,"53,404.50",,"53,404.50",,,,,,,,,,,,,,,,,,,,,,,,,,,,,,,,,,,,,,,,,,,,"53,404.50",,,,N,N,N
1005862,110000345010,ALLEGANY BALLISTICS LABORATORY,KEYSER,WV,26726,210 STATE ROUTE 956,MINERAL COUNTY,39.56,-78.84,336415,C,Other,"18,553.32","18,456.80",32.75,63.77,,,,,,,,,,"18,553.32",,,,,,,,,,,,,,,,,,,,,,,,,,,,,,,,,,,,,N,N,N
1005006,110042036597,"ALLEGHENY LUDLUM, BAGDAD FACILITY",LEECHBURG,PA,15656,585 SILICON DRIVE,WESTMORELAND COUNTY,40.64,-79.61,331111,C,Metals,"41,640.14","41,597.40",19.50,23.24,,,,,,,,,,"41,640.14",,,,,,,,,,,,,,,,,,,,,,,,,,,,,,,,,,,,,N,N,N
1007192,110007023023,ALLEN COUNTY PUBLIC WORKS,LA HARPE,KS,66751,1170 2800TH ST,ALLEN COUNTY,38.01,-95.29,562212,"C,HH",Waste,"57,499.61",98.30,"57,380.75",20.56,,,,,,,,,"1,775.70",122.36,,,,,,,,,,,,,,,,,,,,,,,,,,,,,,,,,"57,377.25",,,,N,N,N
1007496,110043997137,ALLISON GAS PLANT,Allison,TX,79003,16298 Co. Rd. EE,WHEELER COUNTY,35.62,-100.15,211111,"C,W-PROC",Petroleum and Natural Gas Systems,"43,877.60","42,681.80","1,173.75",22.05,,,,,,,,,,"39,128.75",,,,,,,,,,,,,,,,,,,4748.85,,,,,,,,,,,,,,,,,,N,N,N
1007645,110001028290,ALLIANCE SANI LDFL,TAYLOR,PA,18517,398 KEYSER AVENUE,LACKAWANNA COUNTY,41.40,-75.74,562212,"C,HH",Waste,"47,414.94","1,373.80","46,040.25",0.89,,,,,,,,,,"1,375.44",,,,,,,,,,,,,,,,,,,,,,,,,,,,,,,,,"46,039.50",,,,N,N,N
1006197,110001167745,ALLIED IMPERIAL LANDFILL,IMPERIAL,CA,92251,104 EAST ROBINSON ROAD,IMPERIAL COUNTY,32.85,-115.53,562212,HH,Waste,"11,343.00",,"11,343.00",,,,,,,,,,,,,,,,,,,,,,,,,,,,,,,,,,,,,,,,,,,,"11,343.00",,,,N,N,N
1003246,110043997137,ALLISON COMPRESSOR STATION,Briscoe,TX,79011,16301 FM 1046,WHEELER COUNTY,35.62,-100.15,211111,C,Petroleum and Natural Gas Systems,"16,478.79","16,461.80",7.75,9.24,,,,,,,,,,"16,478.79",,,,,,,,,,,,,,,,,,,,,,,,,,,,,,,,,,,,,N,N,N
1005705,110008806612,ALLIANCE PIPELINE - OLIVIA 23-A,BIRD ISLAND,MN,55310,38884 870TH AVE,RENVILLE COUNTY,44.85,-94.90,486210,"C,W-NGTC",Petroleum and Natural Gas Systems,"89,871.36","89,680.50",140.50,50.36,,,,,,,,,,"89,773.01",,,,,,,,,,,,,,,,,,,,98.35,,,,,,,,,,,,,,,,,N,N,N
1000048,110000396946,"ALLISON TRANSMISSION, Inc.",INDIANAPOLIS,IN,46222,One Allison Way,MARION COUNTY,39.78,-86.24,336350,C,Other,"26,049.74","26,010.60",15.00,24.14,,,,,,,,,,"26,049.74",,,,,,,,,,,,,,,,,,,,,,,,,,,,,,,,,,,,,N,N,N
1001559,110011273004,ALLIANCE PIPELINE L.P. - MANCHESTER,MANCHESTER,IA,52057,1242 220TH STREET,DELAWARE COUNTY,42.47,-91.55,486210,"C,W-NGTC",Petroleum and Natural Gas Systems,"82,023.34","81,576.70",400.75,45.89,,,,,,,,,,"81,660.69",,,,,,,,,,,,,,,,,,,,362.65,,,,,,,,,,,,,,,,,N,N,N
1004327,110000451467,ALMATIS INC - BAUXITE ARKANSAS,Benton,AR,72015,4701 ALCOA ROAD,SALINE COUNTY,34.58,-92.53,331311,C,Metals,"53,956.70","53,900.80",25.50,30.40,,,,,,,,,,"53,956.70",,,,,,,,,,,,,,,,,,,,,,,,,,,,,,,,,,,,,N,N,N
1001560,110007054249,ALLIANCE PIPELINE LP,TAMPICO,IL,61283,580 TAMPICO RD,WHITESIDE COUNTY,41.59,-89.78,486210,"C,W-NGTC",Petroleum and Natural Gas Systems,"54,303.90","53,990.50",283.00,30.40,,,,,,,,,,"54,046.10",,,,,,,,,,,,,,,,,,,,257.8,,,,,,,,,,,,,,,,,N,N,N
1007622,110041023807,ALON REFINING KROTZ SPRINGS INC,KROTZ SPRINGS,LA,70750,356 S. LEVEE RD,ST. LANDRY PARISH,30.53,-91.75,324110,"C,MM-REF,Y","Petroleum Product Suppliers,Refineries","445,406.45","441,265.40","2,248.75","1,892.30",,,,,,,,,196.30,"253,341.24",,,,,,,,,,,,,,,,,,,,,,,,,"192,065.21",,,,,,,,,,,,N,N,N
1000245,110022357251,"ALLIANCE PIPELINE, L.P.-FAIRMOUNT COMPRESSOR STATION",FAIRMOUNT,ND,58030,17950 98TH ST SE,RICHLAND COUNTY,45.99,-96.65,486210,"C,W-NGTC",Petroleum and Natural Gas Systems,"93,322.20","92,976.80",293.25,52.15,,,,,,,,,,"93,072.50",,,,,,,,,,,,,,,,,,,,249.7,,,,,,,,,,,,,,,,,N,N,N
1007291,110043668563,ALPHA RIDGE LANDFILL,MARRIOTTSVILLE,MD,21104,2350 MARRIOTTSVILLE ROAD,HOWARD COUNTY,39.31,-76.90,562212,"C,HH",Waste,"29,709.44",14.30,"29,686.50",8.64,,,,,,,,,"2,420.10",26.69,,,,,,,,,,,,,,,,,,,,,,,,,,,,,,,,,"29,682.75",,,,N,N,N
1001558,110022357279,"ALLIANCE PIPELINE, L.P.-WIMBLEDON COMPRESSOR STATION",WIMBLEDON,ND,58492,1540 98TH AVE SE,BARNES COUNTY,47.19,-98.43,486210,"C,W-NGTC",Petroleum and Natural Gas Systems,"96,939.49","96,629.00",256.25,54.24,,,,,,,,,,"96,728.44",,,,,,,,,,,,,,,,,,,,211.05,,,,,,,,,,,,,,,,,N,N,N
1007401,110042073332,"ALTIVIA Petrochemicals, LLC - HAVERHILL COMPLEX",HAVERHILL,OH,45636,1019 HAVERHILL OHIO FURNACE ROAD,SCIOTO COUNTY,38.59,-82.82,325192,C,Chemicals,"17,892.53","17,873.90",8.50,10.13,,,,,,,,,,"17,892.53",,,,,,,,,,,,,,,,,,,,,,,,,,,,,,,,,,,,,N,N,N
1007263,110031262112,ALTO COLUMBIA LLC,BOARDMAN,OR,97818,71335 RAIL LOOP DRIVE,MORROW COUNTY,45.86,-119.66,325193,C,Other,"37,739.11","37,700.20",17.75,21.16,,,,,,,,,,"37,739.11",,,,,,,,,,,,,,,,,,,,,,,,,,,,,,,,,,,,,N,N,N
1007264,110035761912,ALTO MAGIC VALLEY LLC,BURLEY,ID,83318,2600 WASHINGTON AVENUE,CASSIA COUNTY,42.52,-113.82,325193,C,Other,"67,408.50","67,338.90",31.75,37.85,,,,,,,,,,"67,408.50",,,,,,,,,,,,,,,,,,,,,,,,,,,,,,,,,,,,,N,N,N
1003268,110000438679,ALTON STEEL COMPANY,ALTON,IL,62002,#5 CUT ST.,MADISON COUNTY,38.88,-90.15,331111,"C,Q",Metals,"41,464.00","41,435.50",13.00,15.50,,,,,,,,,,"27,714.20",,,,,,,,,,,,"13,749.80",,,,,,,,,,,,,,,,,,,,,,,,,N,N,N
1005184,110041963266,ALYESKA PIPELINE SE/TAPS PUMP STATION 01,PRUDHOE BAY,AK,99734,,NORTH SLOPE BOROUGH,70.26,-148.62,486110,C,Other,"85,080.13","84,991.60",40.25,48.28,,,,,,,,,,"85,080.13",,,,,,,,,,,,,,,,,,,,,,,,,,,,,,,,,,,,,N,N,N
1005781,110064041834,"ALYESKA PIPELINE SERVICE COMPANY, Valdez Marine Terminal",VALDEZ,AK,99686,300 DAYVILLE ROAD,VALDEZ-CORDOVA CENSUS AREA,61.08,-146.39,486110,C,Other,"35,499.84","35,381.10",35.00,83.74,,,,,,,,,,"35,499.84",,,,,,,,,,,,,,,,,,,,,,,,,,,,,,,,,,,,,N,N,N
1005491,110069711869,"AM/NS Calvert, LLC",CALVERT,AL,36513,1 AM/NS Way,MOBILE COUNTY,30.80,-88.10,331111,C,Metals,"447,237.12","446,775.70",210.50,250.92,,,,,,,,,,"447,237.12",,,,,,,,,,,,,,,,,,,,,,,,,,,,,,,,,,,,,N,N,N
1006412,110000468431,AMALGAMATED SUGAR CO LLC,PAUL,ID,83347,50 SOUTH 500 WEST,MINIDOKA COUNTY,42.61,-113.76,311313,"C,S,TT","Minerals,Waste","277,341.29","265,387.80","11,542.25",411.24,,,,,,,,,,"221,972.39",,,,,,,,,,,,,,"44,086.40",,,,,,,,,,,,,,,,,,,,,,"11,282.50",Y,N,N
1005707,110000468609,AMALGAMATED SUGAR CO LLC,NAMPA,ID,83687,138 WEST KARCHER ROAD,CANYON COUNTY,43.61,-116.58,311313,"C,S,TT","Minerals,Waste","359,716.25","256,552.30","102,642.75",521.20,,,,,,,,,,"234,383.55",,,,,,,,,,,,,,"23,012.20",,,,,,,,,,,,,,,,,,,,,,"102,320.50",Y,N,N
1005712,110000468388,AMALGAMATED SUGAR CO LLC,TWIN FALLS,ID,83301,2320 ORCHARD DR. E.,TWIN FALLS COUNTY,42.53,-114.43,311313,"C,S",Minerals,"271,558.44","269,927.70",601.75,"1,028.99",,,,,,,,,,"253,820.84",,,,,,,,,,,,,,"17,737.60",,,,,,,,,,,,,,,,,,,,,,,Y,N,N
1007178,110028032698,AMEA Sylacauga Plant,SYLACAUGA,AL,35150,125 THOMPSON LANE,Talladega,33.17,-86.28,221112,D,Power Plants,"39,003.50","38,963.50",18.25,21.75,,,,,,,,,,,"39,003.50",,,,,,,,,,,,,,,,,,,,,,,,,,,,,,,,,,,,N,N,N
1004732,110012703271,AMERICAN ACRYL PASADENA,PASADENA,TX,77507,"4631 Old Hwy 146, Suite B",HARRIS COUNTY,29.62,-95.07,325199,C,Chemicals,"76,007.36","75,929.00",35.75,42.61,,,,,,,,,,"76,007.36",,,,,,,,,,,,,,,,,,,,,,,,,,,,,,,,,,,,,N,N,N
1005432,110010495384,AMERICAN AIRLINES,TULSA,OK,74116,3800 NORTH MINGO ROAD,TULSA COUNTY,36.20,-95.87,481111,C,Other,"38,144.71","38,096.10",20.00,28.61,,,,,,,,,,"38,144.71",,,,,,,,,,,,,,,,,,,,,,,,,,,,,,,,,,,,,N,N,N
1004417,110013667488,AMERICAN AVENUE LANDFILL,KERMAN,CA,93630,18950 W AMERICAN AVENUE,FRESNO COUNTY,36.67,-120.14,562212,"C,HH",Waste,"94,792.05",3.80,"94,788.25",,,,,,,,,,,3.80,,,,,,,,,,,,,,,,,,,,,,,,,,,,,,,,,"94,788.25",,,,N,N,N
1005327,110000366611,AMERICAN CAST IRON PIPE CO,BIRMINGHAM,AL,35207,2930 NORTH 16TH STREET,JEFFERSON COUNTY,33.55,-86.83,331511,C,Metals,"155,966.07","155,245.80",268.50,451.77,,,,,,,,,,"155,966.07",,,,,,,,,,,,,,,,,,,,,,,,,,,,,,,,,,,,,N,N,N
1008041,110054631225,AMERICAN COLLOID,Colony,WY,82710,,BUTTE COUNTY,44.87,-104.15,212325,C,Other,"105,591.72","105,085.70",189.25,316.77,,,,,,,,,,"105,591.72",,,,,,,,,,,,,,,,,,,,,,,,,,,,,,,,,,,,,N,N,N
1006354,110000594919,AMERICAN CRYSTAL SUGAR - CROOKSTON,CROOKSTON,MN,56716,1201 Hwy 75 South,POLK COUNTY,47.76,-96.63,311313,"C,S,TT","Minerals,Waste","320,408.08","239,179.70","80,287.00",941.38,,,,,,,,,,"219,819.93",,,,,,,,,,,,,,"20,848.40",,,,,,,,,,,,,,,,,,,,,,"79,739.75",Y,N,N
1005751,110007602095,AMERICAN CRYSTAL SUGAR - E GRAND FORKS,EAST GRAND FORKS,MN,56721,1020 Business Hwy 2,POLK COUNTY,47.93,-97.01,311313,"C,S,TT","Minerals,Waste","336,140.24","213,953.70","120,479.00","1,707.54",,,,,,,,,"7,207.20","164,082.84",,,,,,,,,,,,,,"52,561.90",,,,,,,,,,,,,,,,,,,,,,"119,495.50",Y,N,N
1005753,110056190704,AMERICAN CRYSTAL SUGAR - HILLSBORO,HILLSBORO,ND,58045,121 Highway 81 NE,TRAILL COUNTY,47.44,-97.06,311313,"C,S,TT","Minerals,Waste","470,457.87","347,529.50","121,448.50","1,479.87",,,,,,,,,"2,603.60","305,253.32",,,,,,,,,,,,,,"44,607.80",,,,,,,,,,,,,,,,,,,,,,"120,596.75",Y,N,N
1006877,110000427440,AMERICAN CRYSTAL SUGAR - MOORHEAD,MOORHEAD,MN,56560,2500 NORTH 11TH STREET,CLAY COUNTY,46.90,-96.76,311313,"C,S,TT","Minerals,Waste","318,468.89","214,592.30","103,033.25",843.34,,,,,,,,,"3,521.20","195,826.54",,,,,,,,,,,,,,"20,098.10",,,,,,,,,,,,,,,,,,,,,,"102,544.25",Y,N,N
1002552,110039017391,AMERICAN ENVIRONMENTAL LANDFILL,SAND SPRINGS,OK,74063,212 N. 177TH W. AVENUE,OSAGE COUNTY,36.16,-96.19,562212,"C,HH",Waste,"136,427.43",40.40,"136,362.00",25.03,,,,,,,,,"6,918.90",76.18,,,,,,,,,,,,,,,,,,,,,,,,,,,,,,,,,"136,351.25",,,,N,N,N
1000007,110007014774,AMERICAN GYPSUM - BERNALILLO (WALLBOARD) PLANT,BERNALILLO,NM,87004,1000 N HILL RD,SANDOVAL COUNTY,35.33,-106.53,327420,C,Minerals,0.00,0.00,,,,,,,,,,,,0.00,,,,,,,,,,,,,,,,,,,,,,,,,,,,,,,,,,,,,N,N,N
1005175,110007385551,AMERICAN GYPSUM CO /GYPSUM WALLBOARD PLT,DUKE,OK,73532,0.25 MILES W OF,JACKSON COUNTY,34.66,-99.59,327420,C,Minerals,"78,356.90","78,275.80",37.00,44.10,,,,,,,,,,"78,356.90",,,,,,,,,,,,,,,,,,,,,,,,,,,,,,,,,,,,,N,N,N
1004845,110001556138,AMERICAN GYPSUM COMPANY,ALBUQUERQUE,NM,87113,4600 Paseo Del Norte NE,BERNALILLO COUNTY,35.17,-106.59,327420,C,Minerals,"39,516.15","39,475.60",18.50,22.05,,,,,,,,,,"39,516.15",,,,,,,,,,,,,,,,,,,,,,,,,,,,,,,,,,,,,N,N,N
1007404,110007351025,AMERICAN GYPSUM COMPANY,GYPSUM,CO,81637,740 Highway #6,EAGLE COUNTY,39.66,-106.96,327420,C,Minerals,"55,647.34","55,589.80",26.25,31.29,,,,,,,,,,"55,647.34",,,,,,,,,,,,,,,,,,,,,,,,,,,,,,,,,,,,,N,N,N
1005590,110000332220,AMERICAN REFINING GROUP INC,BRADFORD,PA,16701,77 NORTH KENDALL AVENUE,MCKEAN COUNTY,41.97,-78.63,324110,"C,MM-REF,Y","Petroleum Product Suppliers,Refineries","147,292.44","145,319.50","1,271.75",701.19,,,,,,,,,,"139,248.99",,,,,,,,,,,,,,,,,,,,,,,,,"8,043.46",,,,,,,,,,,,N,N,N
1001860,110009575762,AMERICAN SUGAR REFINING INC - Chalmette Refinery,ARABI,LA,70032,7417 N PETERS ST,ST. BERNARD PARISH,29.95,-90.00,311312,C,Other,"125,480.23","125,350.90",59.00,70.33,,,,,,,,,,"125,480.23",,,,,,,,,,,,,,,,,,,,,,,,,,,,,,,,,,,,,N,N,N
1006919,110000378546,AMERICAN SYNTHETIC RUBBER,LOUISVILLE,KY,40216,4500 CAMPGROUND ROAD,JEFFERSON COUNTY,38.21,-85.85,325212,C,Other,"250,534.30","248,755.30",653.75,"1,125.25",,,,,,,,,,"250,534.30",,,,,,,,,,,,,,,,,,,,,,,,,,,,,,,,,,,,,N,N,N
1001962,110056954602,AMERICAS STYRENICS LLC - ST JAMES PLANT,ST. JAMES,LA,70086,9901 HWY 18,ST. JAMES PARISH,30.08,-90.92,325110,C,Chemicals,"666,631.22","665,109.30",488.75,"1,033.17",,,,,,,,,,"666,631.22",,,,,,,,,,,,,,,,,,,,,,,,,,,,,,,,,,,,,N,N,N
1005413,110000476789,AMGEN INC,THOUSAND OAKS,CA,91320,1 AMGEN CENTER DRIVE M/S 21-2-A,VENTURA COUNTY,34.19,-118.92,325414,C,Chemicals,"19,971.52","19,950.70",9.50,11.32,,,,,,,,,,"19,971.52",,,,,,,,,,,,,,,,,,,,,,,,,,,,,,,,,,,,,N,N,N
1005072,110020514843,"AMGEN MANUFACTURING, LIMITED",JUNCOS,PR,00777,RD 31 KM 24.6,JUNCOS MUNICIPIO,18.24,-65.90,325412,C,Chemicals,"31,530.74","31,422.70",31.75,76.29,,,,,,,,,,"31,530.74",,,,,,,,,,,,,,,,,,,,,,,,,,,,,,,,,,,,,N,N,N
1008730,110043799538,AMP Fremont Energy Center,Fremont,OH,43420,1275 Miarer Rd,SANDUSKY COUNTY,41.38,-83.16,221112,D,Power Plants,"1,277,223.11","1,275,925.70",591.75,705.66,,,,,,,,,,,"1,277,223.11",,,,,,,,,,,,,,,,,,,,,,,,,,,,,,,,,,,,N,N,N
1004746,110000490763,ANALOG DEVICES,CAMAS,WA,98607,4200 NW PACIFIC RIM BLVD,CLARK COUNTY,45.60,-122.45,334413,"C,I",Other,"33,621.56","1,803.20",0.75,"1,236.40","1,783.46","25,803.76","2,736.00",258.00,,,,,,"1,804.84",,,,,,"31,816.72",,,,,,,,,,,,,,,,,,,,,,,,,,,,,,,N,N,N
1006810,110004841627,ANCHOR ACQUISITION LLC MONACA PLT,MONACA,PA,15061,400 9TH STREET,BEAVER COUNTY,40.69,-80.28,327212,"C,N",Minerals,"46,090.32","46,054.60",15.75,19.97,,,,,,,,,,"32,733.42",,,,,,,,,"13,356.90",,,,,,,,,,,,,,,,,,,,,,,,,,,,N,N,N
1004508,110000382005,ANCHOR HOCKING GLASS CO PLANT NO 1 *,LANCASTER,OH,43130,1115 WEST FIFTH AVENUE,FAIRFIELD COUNTY,39.72,-82.62,327212,"C,N",Minerals,"106,202.01","106,107.80",43.25,50.96,,,,,,,,,,"91,736.91",,,,,,,,,"14,465.10",,,,,,,,,,,,,,,,,,,,,,,,,,,,N,N,N
1007341,110034176692,ANCHORAGE REGIONAL LANDFILL,EAGLE RIVER,AK,99577,15500 E. EAGLE RIVER LOOP RD,ANCHORAGE MUNICIPALITY,61.29,-149.60,562212,"C,HH",Waste,"500,006.30",2.30,"500,004.00",,,,,,,,,,,2.30,,,,,,,,,,,,,,,,,,,,,,,,,,,,,,,,,"500,004.00",,,,N,N,N
1002416,110043795701,ANDECTOR BOOSTER STATION,GOLDSMITH,TX,79741,,ECTOR COUNTY,32.04,-102.68,211111,C,Petroleum and Natural Gas Systems,"24,511.61","24,486.38",11.53,13.71,,,,,,,,,,"24,511.61",,,,,,,,,,,,,,,,,,,,,,,,,,,,,,,,,,,,,N,N,N
1007839,110002690730,ANDERSON LANDFILL,ANDERSON,CA,96007,18703 CAMBRIDGE ROAD,SHASTA COUNTY,40.42,-122.36,562212,HH,Waste,"43,313.50",,"43,313.50",,,,,,,,,,,,,,,,,,,,,,,,,,,,,,,,,,,,,,,,,,,,"43,313.50",,,,N,N,N
1005392,110030746959,ANGELINA COUNTY WASTE MANAGEMENT CENTER,LUFKIN,TX,75901,7521 FM 58,ANGELINA COUNTY,31.25,-94.70,562212,HH,Waste,"67,907.00",,"67,907.00",,,,,,,,,,,,,,,,,,,,,,,,,,,,,,,,,,,,,,,,,,,,"67,907.00",,,,N,N,N
1002263,110000450477,ANGUS CHEMICAL CO,STERLINGTON,LA,71280,350 LOUISIANA HIGHWAY 2,OUACHITA PARISH,32.69,-92.08,325199,"C,V",Chemicals,"116,489.41","91,199.80",42.75,"25,246.86",,,,,,,,,,"91,293.51",,,,,,,,,,,,,,,,,"25,195.90",,,,,,,,,,,,,,,,,,,,N,N,N
1002576,110000325096,ANHEUSER BUSCH BALDWINSVILLE BREWERY,BALDWINSVILLE,NY,13027,2885 BELGIUM ROAD,ONONDAGA COUNTY,43.17,-76.31,312120,"C,PP","Other,Suppliers of CO2","32,283.71","32,215.60",25.50,42.61,,,,,,,,,"6,485.50","32,283.71",,,,,,,,,,,,,,,,,,,,,,,,,,,,,,,,,,,,,N,N,N
1006111,110000382773,ANHEUSER BUSCH INC,COLUMBUS,OH,43229,700 SCHROCK ROAD,FRANKLIN COUNTY,40.10,-82.99,312120,C,Other,"42,593.62","42,524.40",27.50,41.72,,,,,,,,,"4,968.50","42,593.62",,,,,,,,,,,,,,,,,,,,,,,,,,,,,,,,,,,,,N,N,N
1002867,110017431322,ANHEUSER BUSCH INC. - L.A. BREWERY,VAN NUYS,CA,91406,15800 ROSCOE BOULEVARD,LOS ANGELES COUNTY,34.22,-118.48,312120,C,Other,"37,347.59","37,283.00",25.25,39.34,,,,,,,,,"5,119.70","37,347.59",,,,,,,,,,,,,,,,,,,,,,,,,,,,,,,,,,,,,N,N,N
1003352,110057414070,ANHEUSER BUSCH INCORPORATED FORT COLLINS BREWERY,FORT COLLINS,CO,80524,2351 BUSCH DRIVE,LARIMER COUNTY,40.62,-105.01,312120,"C,PP","Other,Suppliers of CO2","51,002.11","50,949.50",24.00,28.61,,,,,,,,,,"51,002.11",,,,,,,,,,,,,,,,,,,,,,,,,,,,,,,,,,,,,N,N,N
1003176,110000341684,ANHEUSER BUSCH LLC,WILLIAMSBURG,VA,23185,7801 POCAHONTAS TRAIL,JAMES CITY COUNTY,37.24,-76.65,312120,C,Other,"44,308.88","44,261.70",21.25,25.93,,,,,,,,,,"44,308.88",,,,,,,,,,,,,,,,,,,,,,,,,,,,,,,,,,,,,N,N,N
1002734,110000482825,ANHEUSER BUSCH LLC,FAIRFIELD,CA,94534,3101 BUSCH DRIVE,SOLANO COUNTY,38.24,-122.09,312120,C,Other,"13,991.00","13,966.90",9.50,14.60,,,,,,,,,"1,906.20","13,991.00",,,,,,,,,,,,,,,,,,,,,,,,,,,,,,,,,,,,,N,N,N
1003224,110000461401,ANHEUSER-BUSCH HOUSTON BREWERY,HOUSTON,TX,77029,775 GELLHORN DRIVE,HARRIS COUNTY,29.77,-95.27,312120,C,Other,"23,664.49","23,435.40",71.75,157.34,,,,,,,,,"37,842.40","23,664.49",,,,,,,,,,,,,,,,,,,,,,,,,,,,,,,,,,,,,N,N,N
1006147,110000362036,ANHEUSER-BUSCH LLC,JACKSONVILLE,FL,32218,111 BUSCH DR.,DUVAL COUNTY,30.43,-81.65,312120,C,Other,"57,552.83","57,471.10",33.75,47.98,,,,,,,,,"4,348.30","57,552.83",,,,,,,,,,,,,,,,,,,,,,,,,,,,,,,,,,,,,N,N,N
1002915,110040981195,ANHEUSER-BUSCH LLC,MERRIMACK,NH,03054,221 DANIEL WEBSTER HIGHWAY,HILLSBOROUGH COUNTY,42.82,-71.49,312120,"C,PP","Other,Suppliers of CO2","15,863.69","15,836.80",10.50,16.39,,,,,,,,,"1,947.00","15,863.69",,,,,,,,,,,,,,,,,,,,,,,,,,,,,,,,,,,,,N,N,N
1006904,110000356427,"ANHEUSER-BUSCH, INC. CARTERSVI LLE BREWERY",CARTERSVILLE,GA,30120,100 BUSCH DR.,BARTOW COUNTY,34.26,-84.78,312120,C,Other,"24,319.39","24,280.10",15.75,23.54,,,,,,,,,"2,722.40","24,319.39",,,,,,,,,,,,,,,,,,,,,,,,,,,,,,,,,,,,,N,N,N
1004929,110003153729,ANR Pipeline Alden CS,ALDEN,KS,67512,2135 11th Road,RICE COUNTY,38.23,-98.29,486210,"C,W-NGTC",Petroleum and Natural Gas Systems,"36,852.09","28,037.00","8,799.00",16.09,,,,,,,,,,"28,060.09",,,,,,,,,,,,,,,,,,,,8792,,,,,,,,,,,,,,,,,N,N,N
1003525,110000581816,"ANHEUSER-BUSCH, INC. NEWARK BREWERY",NEWARK,NJ,07114,200 US HIGHWAY ONE,ESSEX COUNTY,40.69,-74.20,312120,C,Other,"22,853.93","22,823.30",12.75,17.88,,,,,,,,,"1,104.60","22,853.93",,,,,,,,,,,,,,,,,,,,,,,,,,,,,,,,,,,,,N,N,N
1004926,110043797914,ANR Pipeline Birmingham CS,BIRMINGHAM,IA,52535,2795 LOCUST AVE,JEFFERSON COUNTY,40.90,-91.97,486210,"C,W-NGTC",Petroleum and Natural Gas Systems,"44,069.91","36,427.90","7,621.75",20.26,,,,,,,,,,"36,459.76",,,,,,,,,,,,,,,,,,,,7610.15,,,,,,,,,,,,,,,,,N,N,N
1005490,110001547675,ANIMAS POWER PLANT,FARMINGTON,NM,87401,501 MCCORMICK SCHOOL ROAD,SAN JUAN COUNTY,36.72,-108.19,221112,C,Power Plants,"28,432.79","28,403.20",13.50,16.09,,,,,,,,,,"28,432.79",,,,,,,,,,,,,,,,,,,,,,,,,,,,,,,,,,,,,N,N,N
1006178,110043808136,ANN ARBOR SLF PHASE I & II,ANN ARBOR,MI,48108,4150 PLATT RD,WASHTENAW COUNTY,42.23,-83.70,562212,HH,Waste,"35,440.00",,"35,440.00",,,,,,,,,,,,,,,,,,,,,,,,,,,,,,,,,,,,,,,,,,,,"35,440.00",,,,N,N,N
1004928,110022883003,ANR Pipeline Bridgman CS,BRIDGMAN,MI,49106,3372 BROWNTOWN RD,BERRIEN COUNTY,41.90,-86.53,486210,"C,W-NGTC",Petroleum and Natural Gas Systems,"53,849.95","41,089.80","12,737.50",22.65,,,,,,,,,,"41,119.75",,,,,,,,,,,,,,,,,,,,12730.2,,,,,,,,,,,,,,,,,N,N,N
1005235,110001994272,ANR Pipeline Brownsville CS,Brownsville,TN,38012,70 Pumping Station Road,HAYWOOD COUNTY,35.45,-89.29,486210,"C,W-NGTC",Petroleum and Natural Gas Systems,"11,106.89","1,922.40","9,183.00",1.49,,,,,,,,,,"1,907.54",,,,,,,,,,,,,,,,,,,,9199.35,,,,,,,,,,,,,,,,,N,N,N
1005245,110006765134,ANR Pipeline Celestine CS,Celestine,IN,47521,146 S. Celestine South,DUBOIS COUNTY,38.38,-86.78,486210,"C,W-NGTC",Petroleum and Natural Gas Systems,"10,353.59","2,754.80","7,597.00",1.79,,,,,,,,,,"2,743.89",,,,,,,,,,,,,,,,,,,,7609.7,,,,,,,,,,,,,,,,,N,N,N
1009589,110006121945,ANR Pipeline Cottage Grove CS,Cottage Grove,TN,38224,7845 Highway 140 N,HENRY COUNTY,36.39,-88.48,486210,"C,W-NGTC",Petroleum and Natural Gas Systems,"12,554.12","7,499.50","5,050.75",3.87,,,,,,,,,,"7,497.72",,,,,,,,,,,,,,,,,,,,5056.4,,,,,,,,,,,,,,,,,N,N,N
1007403,110006106445,ANR Pipeline Defiance CS,Defiance,OH,43512,6357 State Route 66 N,DEFIANCE COUNTY,41.35,-84.36,486210,"C,W-NGTC",Petroleum and Natural Gas Systems,"63,867.29","55,765.60","8,071.00",30.69,,,,,,,,,,"55,815.34",,,,,,,,,,,,,,,,,,,,8051.95,,,,,,,,,,,,,,,,,N,N,N
1011138,110070082120,ANR Pipeline Delhi CS,Delhi,LA,71232,1894 Highway 80,RICHLAND PARISH,32.47,-91.60,486210,"C,W-NGTC",Petroleum and Natural Gas Systems,"5,910.65",797.60,"5,112.75",0.30,,,,,,,,,,789.45,,,,,,,,,,,,,,,,,,,,5121.2,,,,,,,,,,,,,,,,,N,N,N
1004932,110001878086,ANR Pipeline E.G. Hill CS,GRUVER,TX,79040,15175 County Road,HANSFORD COUNTY,36.49,-101.47,486210,"C,W-NGTC",Petroleum and Natural Gas Systems,"45,439.65","39,239.60","6,178.00",22.05,,,,,,,,,,"39,275.05",,,,,,,,,,,,,,,,,,,,6164.6,,,,,,,,,,,,,,,,,N,N,N
1004930,110017476756,ANR Pipeline Enterprise CS,ENTERPRISE,KS,67441,1615 NAIL ROAD,DICKINSON COUNTY,38.82,-97.09,486210,"C,W-NGTC",Petroleum and Natural Gas Systems,"36,941.19","29,513.70","7,410.50",16.99,,,,,,,,,,"29,539.44",,,,,,,,,,,,,,,,,,,,7401.75,,,,,,,,,,,,,,,,,N,N,N
1011576,110063745247,ANR Pipeline Goodman CS,Goodman,WI,54125,W 15681 US Highway 8,MARINETTE COUNTY,45.65,-88.39,486210,"C,W-NGTC",Petroleum and Natural Gas Systems,641.90,435.10,206.50,0.30,,,,,,,,,,435.45,,,,,,,,,,,,,,,,,,,,206.45,,,,,,,,,,,,,,,,,N,N,N
1004776,110070081905,ANR Pipeline Greensburg CS,GREENSBURG,KS,67054,,KIOWA COUNTY,37.61,-99.40,486210,"C,W-NGTC",Petroleum and Natural Gas Systems,"37,299.94","30,667.20","6,615.75",16.99,,,,,,,,,,"30,695.14",,,,,,,,,,,,,,,,,,,,6604.8,,,,,,,,,,,,,,,,,N,N,N
1005958,110013860526,ANR Pipeline Blue Lake Complex Gas Storage Facility,MANCELONA,MI,49659,10000 PFLUM RD NE,KALKASKA COUNTY,44.84,-84.97,486210,"C,W-UNSTG",Petroleum and Natural Gas Systems,"35,548.73","32,186.10","3,344.75",17.88,,,,,,,,,,"32,215.68",,,,,,,,,,,,,,,,,,,,,3333.05,,,,,,,,,,,,,,,,N,N,N
1005238,110012665419,ANR Pipeline Greenville CS,Greenville,MS,38703,1336 South Raceway Road,WASHINGTON COUNTY,33.37,-91.01,486210,"C,W-NGTC",Petroleum and Natural Gas Systems,"8,757.40","2,043.30","6,713.50",0.60,,,,,,,,,,"2,033.20",,,,,,,,,,,,,,,,,,,,6724.2,,,,,,,,,,,,,,,,,N,N,N
1004923,110001847734,ANR Pipeline Hamilton CS,HAMILTON,MI,49419,4193 134TH AVENUE,ALLEGAN COUNTY,42.67,-85.96,486210,"C,W-NGTC",Petroleum and Natural Gas Systems,"46,210.19","43,388.40","2,798.25",23.54,,,,,,,,,,"43,429.19",,,,,,,,,,,,,,,,,,,,2781,,,,,,,,,,,,,,,,,N,N,N
1004935,110009972253,ANR Pipeline Havensville CS,HAVENSVILLE,KS,66432,19955 ENGLISH RIDGE RD,POTTAWATOMIE COUNTY,39.49,-96.04,486210,"C,W-NGTC",Petroleum and Natural Gas Systems,"28,716.50","27,047.50","1,653.50",15.50,,,,,,,,,,"27,074.80",,,,,,,,,,,,,,,,,,,,1641.7,,,,,,,,,,,,,,,,,N,N,N
1005067,110002027869,ANR Pipeline Lincoln Gas Storage Facility,LAKE GEORGE,MI,48633,3991 HICKORY RD,CLARE COUNTY,43.94,-84.94,486210,"C,W-UNSTG",Petroleum and Natural Gas Systems,"6,552.33","3,849.20","2,700.75",2.38,,,,,,,,,,"3,850.68",,,,,,,,,,,,,,,,,,,,,2701.65,,,,,,,,,,,,,,,,N,N,N
1005953,110043797870,ANR Pipeline Lineville CS,LINEVILLE,IA,50147,2868 15TH STREET,WAYNE COUNTY,40.63,-93.54,486210,"C,W-NGTC",Petroleum and Natural Gas Systems,"39,414.47","32,961.70","6,434.00",18.77,,,,,,,,,,"32,991.52",,,,,,,,,,,,,,,,,,,,6422.95,,,,,,,,,,,,,,,,,N,N,N
1005242,110003227936,ANR Pipeline Madisonville CS,Madisonville,KY,77002,7500 Nebo Road,HOPKINS COUNTY,37.38,-87.62,486210,"C,W-NGTC",Petroleum and Natural Gas Systems,"5,861.19","3,010.90","2,848.50",1.79,,,,,,,,,,"3,008.89",,,,,,,,,,,,,,,,,,,,2852.3,,,,,,,,,,,,,,,,,N,N,N
1005060,110043796960,ANR Pipeline Maitland CS,MAITLAND,MO,64466,33854 COUNTY HIGHWAY TT,HOLT COUNTY,40.18,-95.12,486210,"C,W-NGTC",Petroleum and Natural Gas Systems,"48,590.80","41,425.60","7,142.25",22.95,,,,,,,,,,"41,462.60",,,,,,,,,,,,,,,,,,,,7128.2,,,,,,,,,,,,,,,,,N,N,N
1009733,110011599948,ANR Pipeline Meade CS,Meade,KS,67864,28111 11 Road,MEADE COUNTY,37.08,-100.47,486210,"C,W-NGTC",Petroleum and Natural Gas Systems,"27,648.17","21,149.60","6,487.25",11.32,,,,,,,,,,"21,165.42",,,,,,,,,,,,,,,,,,,,6482.75,,,,,,,,,,,,,,,,,N,N,N
1009608,110055517258,ANR Pipeline Mooreland CS,Mooreland,OK,73852,14070 US Highway 412,WOODWARD COUNTY,36.47,-99.15,486210,"C,W-NGTC",Petroleum and Natural Gas Systems,"23,238.57","20,908.90","2,317.75",11.92,,,,,,,,,,"20,930.12",,,,,,,,,,,,,,,,,,,,2308.45,,,,,,,,,,,,,,,,,N,N,N
1004769,110043807235,ANR Pipeline New Windsor CS,NEW WINDSOR,IL,61465,296 NORTH 600 AVE,HENRY COUNTY,41.21,-90.44,486210,"C,W-NGTC",Petroleum and Natural Gas Systems,"35,465.40","28,107.40","7,342.50",15.50,,,,,,,,,,"28,130.70",,,,,,,,,,,,,,,,,,,,7334.7,,,,,,,,,,,,,,,,,N,N,N
1005243,110006178331,ANR Pipeline Patterson CS,PATTERSON,LA,70392,3609 Highway 90,ST. MARY PARISH,29.69,-91.34,486210,"C,W-NGTC",Petroleum and Natural Gas Systems,"28,201.31","24,851.60","3,336.00",13.71,,,,,,,,,,"24,873.41",,,,,,,,,,,,,,,,,,,,3327.9,,,,,,,,,,,,,,,,,N,N,N
1009590,110055517212,ANR Pipeline Portland CS,Portland,IN,47371,6059 W State Road 26,JAY COUNTY,40.44,-85.10,486210,"C,W-NGTC",Petroleum and Natural Gas Systems,"38,550.04","29,100.70","9,433.25",16.09,,,,,,,,,,"29,114.69",,,,,,,,,,,,,,,,,,,,9435.35,,,,,,,,,,,,,,,,,N,N,N
1004937,110018479813,ANR Pipeline Sandwich CS,SANDWICH,IL,60548,6650 SANDY BLUFF RD,KENDALL COUNTY,41.62,-88.58,486210,"C,W-NGTC",Petroleum and Natural Gas Systems,"24,772.29","16,374.20","8,389.75",8.34,,,,,,,,,,"16,383.14",,,,,,,,,,,,,,,,,,,,8389.15,,,,,,,,,,,,,,,,,N,N,N
1005244,110009113645,ANR Pipeline Sardis CS,Sardis,MS,38666,2099 Holly Grove Road,PANOLA COUNTY,34.42,-90.13,486210,"C,W-NGTC",Petroleum and Natural Gas Systems,"7,846.09","3,927.50","3,916.50",2.09,,,,,,,,,,"3,924.04",,,,,,,,,,,,,,,,,,,,3922.05,,,,,,,,,,,,,,,,,N,N,N
1005236,110009739569,ANR Pipeline Shelbyville CS,Shelbyville,IN,46176,5500 Smithland Road,SHELBY COUNTY,39.44,-85.88,486210,"C,W-NGTC",Petroleum and Natural Gas Systems,"25,309.00","14,552.20","10,748.75",8.05,,,,,,,,,,"14,546.90",,,,,,,,,,,,,,,,,,,,10762.1,,,,,,,,,,,,,,,,,N,N,N
1004925,110001306088,ANR Pipeline St. John CS,ST JOHN,IN,46373,10313 WHITE OAK AVE,LAKE COUNTY,41.43,-87.49,486210,"C,W-NGTC",Petroleum and Natural Gas Systems,"30,611.56","22,707.70","7,890.75",13.11,,,,,,,,,,"22,725.51",,,,,,,,,,,,,,,,,,,,7886.05,,,,,,,,,,,,,,,,,N,N,N
1011137,110001686907,ANR Pipeline Woodstock CS,Woodstock,IL,60098,15313 West South Street Road,MCHENRY COUNTY,42.29,-88.49,486210,"C,W-NGTC",Petroleum and Natural Gas Systems,"26,441.66","23,369.80","3,058.75",13.11,,,,,,,,,,"23,391.51",,,,,,,,,,,,,,,,,,,,3050.15,,,,,,,,,,,,,,,,,N,N,N
1004933,110040962303,ANR Pipeline Woolfolk CS,BIG RAPIDS,MI,49307,11039 150TH AVENUE,MECOSTA COUNTY,43.62,-85.38,486210,"C,W-NGTC",Petroleum and Natural Gas Systems,"37,430.39","29,146.50","8,267.50",16.39,,,,,,,,,,"29,168.64",,,,,,,,,,,,,,,,,,,,8261.75,,,,,,,,,,,,,,,,,N,N,N
1004802,110000729105,ANSHUTZ RANCH EAST GAS PLANT,EVANSTON,WY,82930,20 MILES SOUTHWEST OF EVANSTON,UINTA COUNTY,41.07,-111.04,211111,"C,W-PROC",Petroleum and Natural Gas Systems,"23,031.85","15,615.70","7,409.00",7.15,,,,,,,,,,"12,506.05",,,,,,,,,,,,,,,,,,,10525.8,,,,,,,,,,,,,,,,,,N,N,N
1008332,110038981778,ANTELOPE RIDGE GAS PLANT,JAL,NM,88252,,LEA COUNTY,32.30,-103.45,211112,C,Petroleum and Natural Gas Systems,"13,030.56","13,016.99",6.13,7.45,,,,,,,,,,"13,030.56",,,,,,,,,,,,,,,,,,,,,,,,,,,,,,,,,,,,,N,N,N
1007710,110038067472,ANTELOPE VALLEY RECYCLING AND DISPOSAL FACILITY,PALMDALE,CA,93551,1200 WEST CITY RANCH ROAD,LOS ANGELES COUNTY,34.57,-118.15,562212,"C,HH",Waste,"45,817.45",122.20,"45,695.25",,,,,,,,,,,122.20,,,,,,,,,,,,,,,,,,,,,,,,,,,,,,,,,"45,695.25",,,,N,N,N
1004003,110013935331,APACHE JUNCTION LANDFILL,APACHE JUNCTION,AZ,85219,4050 SOUTH TOMAHAWK RD,PINAL COUNTY,33.38,-111.53,562212,HH,Waste,"150,976.00",,"150,976.00",,,,,,,,,,,,,,,,,,,,,,,,,,,,,,,,,,,,,,,,,,,,"150,976.00",,,,N,N,N
1001908,110017427033,APACHE NITROGEN PRODUCTS - PLANT,St. David,AZ,85630,1436 SOUTH APACHE POWDER ROAD,COCHISE COUNTY,31.88,-110.24,325311,"C,V",Chemicals,"431,364.51","26,245.70",12.25,"405,106.56",,,,,,,,,,"26,272.55",,,,,,,,,,,,,,,,,"405,091.96",,,,,,,,,,,,,,,,,,,,N,N,N
1006777,110024560875,"APEX ENVIRONMENTAL, LLC - SANITARY LANDFILL (0641000223)",AMSTERDAM,OH,43903,11 COUNTY ROAD 78,JEFFERSON COUNTY,40.43,-80.91,562212,HH,Waste,"210,859.75",,"210,859.75",,,,,,,,,,,,,,,,,,,,,,,,,,,,,,,,,,,,,,,,,,,,"210,859.75",,,,N,N,N
1004352,110043798147,APEX REGIONAL LANDFILL,LAS VEGAS,NV,89165,13550 US HIGHWAY 93 NORTH,CLARK COUNTY,36.29,-115.28,562212,"C,HH",Waste,"167,600.69",784.10,"166,814.50",2.09,,,,,,,,,,786.94,,,,,,,,,,,,,,,,,,,,,,,,,,,,,,,,,"166,813.75",,,,N,N,N
1000793,110000585956,"APG Polytech, LLC",APPLE GROVE,WV,25502,27610 Huntington Road,MASON COUNTY,38.66,-82.17,325211,C,Other,"44,952.18","44,905.60",21.25,25.33,,,,,,,,,,"44,952.18",,,,,,,,,,,,,,,,,,,,,,,,,,,,,,,,,,,,,N,N,N
1010353,110055520547,APPLEBY TREATER,Appleby,TX,75965,,NACOGDOCHES COUNTY,31.69,-94.58,211112,"C,W-PROC",Petroleum and Natural Gas Systems,"52,847.30","49,763.20","3,077.25",6.85,,,,,,,,,,"12,298.50",,,,,,,,,,,,,,,,,,,40548.8,,,,,,,,,,,,,,,,,,N,N,N
1005669,110000332177,APPLETON ROARING SPRING PAPER MFG,ROARING SPRING,PA,16673,100 PAPER MILL RD.,BLAIR COUNTY,40.34,-78.41,322121,"AA,C",Pulp and Paper,"108,148.40","106,273.30",541.25,"1,333.85",,,,,,,,,"195,377.30","96,558.11",,,,,,,,,,,,,,,,,,,,,,,,,,,"11,590.29",,,,,,,,,,N,N,N
1002596,110000423140,APPVION - APPLETON PLT,APPLETON,WI,54911,825 E WISCONSIN AVE,OUTAGAMIE COUNTY,44.27,-88.39,322222,C,Pulp and Paper,"39,074.95","39,034.40",18.50,22.05,,,,,,,,,,"39,074.95",,,,,,,,,,,,,,,,,,,,,,,,,,,,,,,,,,,,,N,N,N
1002434,110000394948,"APPVION, INC. WEST CARROLLTON",WEST CARROLLTON,OH,45449,1030 WEST ALEX BELL ROAD,MONTGOMERY COUNTY,39.65,-84.19,322222,C,Pulp and Paper,"12,984.35","12,971.20",6.00,7.15,,,,,,,,,,"12,984.35",,,,,,,,,,,,,,,,,,,,,,,,,,,,,,,,,,,,,N,N,N
1001423,110041968902,APS Saguaro Power Plant,RED ROCK,AZ,85245,MAIL POST 228,Pinal,32.55,-111.30,221112,"C,D",Power Plants,"14,911.00","14,896.20",6.75,8.05,,,,,,,,,,"2,535.29","12,375.70",,,,,,,,,,,,,,,,,,,,,,,,,,,,,,,,,,,,N,N,N
1001422,110017422145,APS West Phoenix Power Plant,PHOENIX,AZ,85043,4606 WEST HADLEY,Maricopa,33.44,-112.16,221112,"C,D",Power Plants,"854,171.83","853,302.70",396.50,472.63,,,,,,,,,,"163,220.99","690,950.84",,,,,,,,,,,,,,,,,,,,,,,,,,,,,,,,,,,,N,N,N
1005906,110001709116,AR GLASS CONTAINER CORP,JONESBORO,AR,72401,516 WEST JOHNSON AVENUE,CRAIGHEAD COUNTY,35.85,-90.71,327213,"C,N",Minerals,"15,722.15","15,709.00",6.00,7.15,,,,,,,,,,"12,933.25",,,,,,,,,"2,788.90",,,,,,,,,,,,,,,,,,,,,,,,,,,,N,N,N
1008752,110031339530,"ARAUCO NORTH AMERICA, INC - BENNETTSVILLE MDF",BENNETTSVILLE,SC,29512,579 WILLAMETTE ROAD,MARLBORO COUNTY,34.60,-79.78,321219,C,Other,"26,082.54","25,358.50",112.25,611.79,,,,,,,,,"52,250.40","26,082.54",,,,,,,,,,,,,,,,,,,,,,,,,,,,,,,,,,,,,N,N,N
1005385,110041568568,ARCELORMITTAL TUBULAR PRODUCTS USA LLC,SHELBY,OH,44875,132-140 W MAIN ST,RICHLAND COUNTY,40.88,-82.67,331210,C,Metals,"58,938.63","58,877.80",27.75,33.08,,,,,,,,,,"58,938.63",,,,,,,,,,,,,,,,,,,,,,,,,,,,,,,,,,,,,N,N,N
1002916,110000448043,ARCHER DANIEL MIDLAND COMPANY,COLUMBUS,NE,68601,3000 E 8TH STREET,PLATTE COUNTY,41.42,-97.29,311221,"C,II","Other,Waste","1,160,743.40","1,147,026.60","8,517.00","5,199.80",,,,,,,,,"16,728.10","1,155,234.90",,,,,,,,,,,,,,,,,,,,,,,,,,,,,,,,,,"5,508.50",,,N,N,N
1001945,110000427128,ARCHER DANIELS MIDLAND,MARSHALL,MN,56258,400 WEST ERIE ROAD,LYON COUNTY,44.47,-95.78,311221,"C,II,PP","Other,Suppliers of CO2,Waste","171,890.88","171,106.90",677.00,106.98,,,,,,,,,"3,058.00","171,299.13",,,,,,,,,,,,,,,,,,,,,,,,,,,,,,,,,,591.75,,,N,N,N
1003215,110000592047,ARCHER DANIELS MIDLAND,FRANKFORT,IN,46041,2191 W CR 0 NS,CLINTON COUNTY,40.29,-86.55,311222,C,Other,"63,928.06","63,862.30",30.00,35.76,,,,,,,,,,"63,928.06",,,,,,,,,,,,,,,,,,,,,,,,,,,,,,,,,,,,,N,N,N
1005935,110002382680,ARCHER DANIELS MIDLAND COMPANY,LINCOLN,NE,68507,7800 THAYER STREET,LANCASTER COUNTY,40.87,-96.62,311222,C,Other,"157,216.97","156,103.70",408.50,704.77,,,,,,,,,,"157,216.97",,,,,,,,,,,,,,,,,,,,,,,,,,,,,,,,,,,,,N,N,N
1005940,110000595115,ARCHER DANIELS MIDLAND PROCESSING,VELVA,ND,58790,1388 HIGHWAY 97,MCHENRY COUNTY,48.06,-100.92,311225,C,Other,"31,361.23","31,328.60",14.75,17.88,,,,,,,,,,"31,361.23",,,,,,,,,,,,,,,,,,,,,,,,,,,,,,,,,,,,,N,N,N
1007937,110000416005,ARCONIC DAVENPORT LLC,BETTENDORF,IA,52722,4879 STATE STREET,SCOTT COUNTY,41.53,-90.47,331315,C,Metals,"260,372.02","260,103.50",122.50,146.02,,,,,,,,,,"260,372.02",,,,,,,,,,,,,,,,,,,,,,,,,,,,,,,,,,,,,N,N,N
1004649,110000404198,ARCONIC LAFAYETTE LLC,LAFAYETTE,IN,47905,3131 E MAIN ST,TIPPECANOE COUNTY,40.40,-86.87,331316,C,Metals,"55,985.44","55,927.90",26.25,31.29,,,,,,,,,,"55,985.44",,,,,,,,,,,,,,,,,,,,,,,,,,,,,,,,,,,,,N,N,N
1002795,110000916812,ARCONIC TENNESSEE OPERATIONS,ALCOA,TN,37701,2300 N WRIGHT RD,BLOUNT COUNTY,35.81,-83.97,331315,C,Metals,"208,571.22","208,357.00",98.00,116.22,,,,,,,,,,"208,571.22",,,,,,,,,,,,,,,,,,,,,,,,,,,,,,,,,,,,,N,N,N
1003456,110061023663,ARDEN LDFL,WASHINGTON,PA,15301,200 Rangos Lane,WASHINGTON COUNTY,40.21,-80.26,562212,"C,HH",Waste,"36,823.97","1,775.60","34,962.25",86.12,,,,,,,,,"22,688.10","1,898.22",,,,,,,,,,,,,,,,,,,,,,,,,,,,,,,,,"34,925.75",,,,N,N,N
1006659,110000589015,ARGOS CEMENT LLC. - ROBERTA PLANT,CALERA,AL,35040,8039 HIGHWAY 25,SHELBY COUNTY,33.10,-86.80,327310,"C,H",Minerals,"823,841.25","820,123.10","1,393.75","2,324.40",,,,,,,,,,10.10,,,,,"823,831.15",,,,,,,,,,,,,,,,,,,,,,,,,,,,,,,,N,N,N
1007566,110000585929,ARGOS USA -Martinsburg,MARTINSBURG,WV,25401,1826 SOUTH QUEEN STREET,BERKELEY COUNTY,39.43,-77.98,327310,"C,H",Minerals,"971,089.65","968,399.50",983.50,"1,706.65",,,,,,,,,,"1,114.18",,,,,"969,975.46",,,,,,,,,,,,,,,,,,,,,,,,,,,,,,,,N,N,N
1002442,110000362287,ARIZONA CHEMICAL COMPANY,PANAMA CITY,FL,32401,"2 EVERITT AVE., S. END",BAY COUNTY,30.14,-85.62,325191,C,Chemicals,"72,877.58","72,802.50",34.25,40.83,,,,,,,,,,"72,877.58",,,,,,,,,,,,,,,,,,,,,,,,,,,,,,,,,,,,,N,N,N
1006199,110043811792,ARIZONA STATE UNIVERSITY,TEMPE,AZ,85281,"300 E. University Drive, Suite 320",MARICOPA COUNTY,33.42,-111.94,611310,C,Other,"42,774.49","42,730.10",20.25,24.14,,,,,,,,,,"42,774.49",,,,,,,,,,,,,,,,,,,,,,,,,,,,,,,,,,,,,N,N,N
1006203,110032953294,ARKALON ETHANOL LLC,LIBERAL,KS,67901,8664 RD P,SEWARD COUNTY,37.11,-100.80,325193,"C,PP","Other,Suppliers of CO2","116,849.26","116,728.70",55.00,65.56,,,,,,,,,,"116,849.26",,,,,,,,,,,,,,,,,,,,,,,,,,,,,,,,,,,,,N,N,N
1002209,110001711997,ARKANSAS LIME COMPANY,BATESVILLE,AR,72501,600 LIMEDALE ROAD,INDEPENDENCE COUNTY,35.79,-91.74,327410,"C,S",Minerals,"407,755.93","407,269.00",178.50,308.43,,,,,,,,,,"177,141.53",,,,,,,,,,,,,,"230,614.40",,,,,,,,,,,,,,,,,,,,,,,N,N,N
1005801,110000451671,ARKANSAS STEEL ASSOCIATES,NEWPORT,AR,72112,2803 VAN DYKE ROAD,JACKSON COUNTY,35.65,-91.24,331221,"C,Q",Metals,"56,052.90","56,012.90",18.25,21.75,,,,,,,,,,"38,732.40",,,,,,,,,,,,"17,320.50",,,,,,,,,,,,,,,,,,,,,,,,,N,N,N
1006644,110000464168,ARKEMA BEAUMONT PLANT,BEAUMONT,TX,77701,2810 GULF STATES ROAD,JEFFERSON COUNTY,30.06,-94.06,325199,C,Chemicals,"55,007.49","54,950.50",26.00,30.99,,,,,,,,,,"55,007.49",,,,,,,,,,,,,,,,,,,,,,,,,,,,,,,,,,,,,N,N,N
1006797,110067040703,ARKEMA INC CLEAR LAKE,PASADENA,TX,77507,9502 BAYPORT BLVD STE B,HARRIS COUNTY,29.63,-95.06,325110,C,Chemicals,"58,681.98","58,621.70",27.50,32.78,,,,,,,,,,"58,681.98",,,,,,,,,,,,,,,,,,,,,,,,,,,,,,,,,,,,,N,N,N
1005721,110000380061,"ARKEMA, INC.",CALVERT CITY,KY,42029,4444 INDUSTRIAL PARKWAY,MARSHALL COUNTY,37.06,-88.37,325120,"C,L,OO","Chemicals,Industrial Gas Suppliers","1,269,471.92","68,680.60",32.50,39.04,"1,200,045.17",,,,,10.80,3.81,660.00,,"68,752.14",,,,,,,,"1,200,719.78",,,,,,,,,,,,,,,,,,,,,,,,,,,,,N,N,N
1006785,110007029562,ARMSTRONG CEMENT & SUPPLY,CABOT,PA,16023,100 CLEARFIELD ROAD,BUTLER COUNTY,40.79,-79.70,327310,"C,H",Minerals,"150,925.50","150,074.10",315.00,536.40,,,,,,,,,,11.00,,,,,"150,914.50",,,,,,,,,,,,,,,,,,,,,,,,,,,,,,,,N,N,N
1003208,110000333906,ARMSTRONG WORLD IND MARIETTA CEILING PLT,MARIETTA,PA,17547,1507 RIVER ROAD,LANCASTER COUNTY,40.06,-76.59,339999,C,Other,"72,710.63","72,636.10",34.00,40.53,,,,,,,,,,"72,710.63",,,,,,,,,,,,,,,,,,,,,,,,,,,,,,,,,,,,,N,N,N
1002968,110001737130,ARMSTRONG WORLD INDUSTRIES INC.,PENSACOLA,FL,32505,300 SOUTH MYRICK ST,ESCAMBIA COUNTY,30.41,-87.25,339999,C,Other,"31,673.98","31,641.10",15.00,17.88,,,,,,,,,,"31,673.98",,,,,,,,,,,,,,,,,,,,,,,,,,,,,,,,,,,,,N,N,N
1003235,110000486750,"ARMSTRONG WORLD INDUSTRIES, INC.",SAINT HELENS,OR,97051,1645 RAILROAD AVENUE,COLUMBIA COUNTY,45.84,-122.82,339999,C,Other,"18,455.38","18,436.20",8.75,10.43,,,,,,,,,,"18,455.38",,,,,,,,,,,,,,,,,,,,,,,,,,,,,,,,,,,,,N,N,N
1002515,110043804096,ARTESIA GAS PLANT,ARTESIA,NM,88210,,EDDY COUNTY,32.76,-104.21,211112,"C,PP,UU,W-PROC","Injection of CO2,Petroleum and Natural Gas Systems,Suppliers of CO2","108,938.66","104,091.50","4,797.40",49.77,,,,,,,,,,"67,972.63",,,,,,,,,,,,,,,,,,,40966.0317,,,,,,,,,,,,,,,,,,N,N,N
1002494,110000743955,ASARCO LLC AMARILLO COPPER REFINERY,AMARILLO,TX,79108,7001 NORTH HIGHWAY 136,POTTER COUNTY,35.28,-101.73,331411,C,Metals,"59,865.02","59,803.10",28.25,33.67,,,,,,,,,,"59,865.02",,,,,,,,,,,,,,,,,,,,,,,,,,,,,,,,,,,,,N,N,N
1002486,110069332261,ASARCO LLC Hayden Operations,Hayden,AZ,85135,866 N. Hayden Avenue,GILA COUNTY,33.00,-110.78,331411,C,Metals,"49,819.71","49,768.20",23.50,28.01,,,,,,,,,,"49,819.71",,,,,,,,,,,,,,,,,,,,,,,,,,,,,,,,,,,,,N,N,N
1002190,110000503722,ASCEND PERFORMANCE MATERIALS CHOCOLATE BAYOU FACILITY,ALVIN,TX,77512,,BRAZORIA COUNTY,29.26,-95.21,325199,"C,X",Chemicals,"593,016.96","592,745.70",123.75,147.51,,,,,,,,,,"263,178.96",,,,,,,,,,,,,,,,,,,,,,,,"329,838.00",,,,,,,,,,,,,N,N,N
1003975,110040916113,ASCEND PERFORMANCE MATERIALS OPERATIONS LLC,GREENWOOD,SC,29646,1515 HWY 246 S,GREENWOOD COUNTY,34.23,-82.06,325222,C,Other,"45,037.58","44,991.00",21.25,25.33,,,,,,,,,,"45,037.58",,,,,,,,,,,,,,,,,,,,,,,,,,,,,,,,,,,,,N,N,N
1002665,110000445929,ASH GROVE CEMENT CO-CHANUTE PLANT,CHANUTE,KS,66720,1801 NORTH SANTA FE STREET,NEOSHO COUNTY,37.70,-95.46,327310,"C,H",Minerals,"1,015,317.56","1,013,531.50",655.75,"1,130.31",,,,,,,,,,"1,565.24",,,,,"1,013,752.32",,,,,,,,,,,,,,,,,,,,,,,,,,,,,,,,N,N,N
1002421,110000459192,ASH GROVE CEMENT COMPANY,MIDLOTHIAN,TX,76065,900 GIFCO ROAD,ELLIS COUNTY,32.52,-97.01,327310,"C,H",Minerals,"576,068.70","576,068.70",,,,,,,,,,,,260.10,,,,,"575,808.60",,,,,,,,,,,,,,,,,,,,,,,,,,,,,,,,N,N,N
1002527,110017417776,ASH GROVE CEMENT COMPANY-DURKEE,DURKEE,OR,97905,33060 SHIRTTAIL CREEK ROAD,BAKER COUNTY,44.54,-117.42,327310,"C,H",Minerals,"715,119.18","713,348.70",650.00,"1,120.48",,,,,,,,,,29.60,,,,,"715,089.58",,,,,,,,,,,,,,,,,,,,,,,,,,,,,,,,N,N,N
1007552,110000596793,ASH GROVE CEMENT COMPANY-Louisville,LOUISVILLE,NE,68037,16215 HWY. 50,CASS COUNTY,41.01,-96.15,327310,"C,H",Minerals,"741,354.97","738,950.50",880.50,"1,523.97",,,,,,,,,,"13,019.65",,,,,"728,335.32",,,,,,,,,,,,,,,,,,,,,,,,,,,,,,,,N,N,N
1002531,110000595197,ASH GROVE CEMENT COMPANY-MONTANA CITY,CLANCY,MT,59634,100 HIGHWAY 518,JEFFERSON COUNTY,46.54,-111.92,327310,"C,H",Minerals,"338,101.64","336,876.50",448.25,776.89,,,,,,,,,,"1,086.70",,,,,"337,014.94",,,,,,,,,,,,,,,,,,,,,,,,,,,,,,,,N,N,N
1002537,110000897085,ASH GROVE CEMENT COMPANY-SEATTLE,SEATTLE,WA,98134,3801 EAST MARGINAL WAY SOUTH,KING COUNTY,47.57,-122.34,327310,H,Minerals,"495,030.00","494,557.00",369.00,104.00,,,,,,,,,,,,,,,"495,030.00",,,,,,,,,,,,,,,,,,,,,,,,,,,,,,,,N,N,N
1007606,110000597729,ASH GROVE CEMENT-FOREMAN,Foreman,AR,71836,4343 HWY 108,LITTLE RIVER COUNTY,33.69,-94.42,327310,"C,H",Minerals,"900,421.39","899,112.40",480.25,828.74,,,,,,,,,,740.85,,,,,"899,680.54",,,,,,,,,,,,,,,,,,,,,,,,,,,,,,,,N,N,N
1002479,110007023513,ASHLAND #2 CMPSR STA,Coalgate,OK,74538,15718 STATE HIGHWAY 31,COAL COUNTY,34.74,-96.11,486210,C,Petroleum and Natural Gas Systems,"21,829.87","21,807.40",10.25,12.22,,,,,,,,,,"21,829.87",,,,,,,,,,,,,,,,,,,,,,,,,,,,,,,,,,,,,N,N,N
1003496,110009878748,ASHLEY Energy LLC,SAINT LOUIS,MO,63102,1 ASHLEY STREET,ST. LOUIS CITY,38.64,-90.18,221330,C,Power Plants,"52,992.00","52,937.20",25.00,29.80,,,,,,,,,,"52,992.00",,,,,,,,,,,,,,,,,,,,,,,,,,,,,,,,,,,,,N,N,N
1004576,110043792401,ASTORIA ENERGY LLC & ASTORIA ENERGY II LLC,ASTORIA,NY,11105,17-10 STEINWAY ST,QUEENS COUNTY,40.78,-73.90,221112,D,Power Plants,"2,643,761.72","2,640,741.70","1,301.75","1,718.27",,,,,,,,,,,"2,643,761.72",,,,,,,,,,,,,,,,,,,,,,,,,,,,,,,,,,,,N,N,N
1007800,110007336203,ATASCOCITA RECYCLING AND DISPOSAL FACILITY,HUMBLE,TX,77396,3623 WILSON ROAD,HARRIS COUNTY,29.95,-95.25,562212,HH,Waste,"306,673.50",,"306,673.50",,,,,,,,,,,,,,,,,,,,,,,,,,,,,,,,,,,,,,,,,,,,"306,673.50",,,,N,N,N
1006056,110013454957,ATHENS & CLARKE COUNTIES-DUNLAP ROAD LF,WINTERVILLE,GA,30683,5700 LEXINGTON RD,CLARKE COUNTY,33.93,-83.26,562212,HH,Waste,"51,762.75",,"51,762.75",,,,,,,,,,,,,,,,,,,,,,,,,,,,,,,,,,,,,,,,,,,,"51,762.75",,,,N,N,N
1006778,110000348589,ATI Allvac - Monroe,MONROE,NC,28110,2020 ASHCRAFT AVENUE,UNION COUNTY,34.99,-80.52,331419,C,Metals,"58,378.77","58,316.20",28.00,34.57,,,,,,,,,,"58,378.77",,,,,,,,,,,,,,,,,,,,,,,,,,,,,,,,,,,,,N,N,N
1005442,110000417228,ATI LADISH LLC,CUDAHY,WI,53110,5481 S PACKARD AVE,MILWAUKEE COUNTY,42.95,-87.86,332112,C,Other,"54,771.04","54,714.60",25.75,30.69,,,,,,,,,,"54,771.04",,,,,,,,,,,,,,,,,,,,,,,,,,,,,,,,,,,,,N,N,N
1002571,110032607329,ATK Launch Systems LLC,Promontory,UT,84307,9160 North Highway 83,BOX ELDER COUNTY,41.68,-112.43,336415,C,Other,"33,530.99","33,489.60",17.25,24.14,,,,,,,,,,"33,530.99",,,,,,,,,,,,,,,,,,,,,,,,,,,,,,,,,,,,,N,N,N
1002570,110002380254,ATK Launch Systems LLC,MAGNA,UT,84044,5000 SOUTH 8400 WEST,SALT LAKE COUNTY,40.67,-112.09,336415,C,Other,"13,082.20","13,068.50",6.25,7.45,,,,,,,,,,"13,082.20",,,,,,,,,,,,,,,,,,,,,,,,,,,,,,,,,,,,,N,N,N
1003772,110000460670,"ATLANTIC COFFEE INDUSTRIAL SOLUTIONS, LLC",HOUSTON,TX,77003,3900 HARRISBURG BLVD.,HARRIS COUNTY,29.75,-95.34,311920,C,Other,"26,500.14","26,373.20",51.25,75.69,,,,,,,,,"5,739.30","26,500.14",,,,,,,,,,,,,,,,,,,,,,,,,,,,,,,,,,,,,N,N,N
1001858,110022939454,ATLANTIC COUNTY LANDFILL,EGG HARBOR TOWNSHIP,NJ,08234,6700 Delilah Road,ATLANTIC COUNTY,39.42,-74.54,562212,"C,HH",Waste,"30,442.00",312.20,"30,129.50",0.30,,,,,,,,,,312.50,,,,,,,,,,,,,,,,,,,,,,,,,,,,,,,,,"30,129.50",,,,N,N,N
1003826,110020667580,ATLANTIC WASTE DISPOSAL INC - SUSSEX COUNTY LAND,WAVERLY,VA,23890,3474 ATLANTIC LN,SUSSEX COUNTY,37.06,-77.18,562212,"C,HH",Waste,"100,462.78",422.60,"100,037.50",2.68,,,,,,,,,750.70,426.53,,,,,,,,,,,,,,,,,,,,,,,,,,,,,,,,,"100,036.25",,,,N,N,N
1003034,110019344271,AUBURN SANITARY LANDFILL NO 2,AUBURN,NY,13021,311 NORTH DIVISION STREET,CAYUGA COUNTY,42.95,-76.59,562212,"C,HH",Waste,"7,019.60",307.40,"6,697.00",15.20,,,,,,,,,"4,097.10",329.10,,,,,,,,,,,,,,,,,,,,,,,,,,,,,,,,,"6,690.50",,,,N,N,N
1005000,110000380999,AUDUBON METALS LLC,HENDERSON,KY,42420,3055 OHIO DR.,HENDERSON COUNTY,37.81,-87.63,331314,C,Metals,"43,954.28","43,908.80",20.75,24.73,,,,,,,,,,"43,954.28",,,,,,,,,,,,,,,,,,,,,,,,,,,,,,,,,,,,,N,N,N
1006344,110030493561,AUGUSTA COUNTY SVC AUTHORITY LANDFILL,STAUNTON,VA,24401,749 Christians Creek Road,AUGUSTA COUNTY,38.08,-79.06,562212,"C,HH",Waste,"102,457.90",36.40,"102,421.50",,,,,,,,,,,36.40,,,,,,,,,,,,,,,,,,,,,,,,,,,,,,,,,"102,421.50",,,,N,N,N
1007346,110008060702,AUSTIN WHITE LIME COMPANY MCNEIL PLANT & QUARRY,AUSTIN,TX,78728,14001 MCNEIL ROAD,TRAVIS COUNTY,30.45,-97.72,327410,"C,S",Minerals,"221,514.25","220,936.30",213.50,364.45,,,,,,,,,,"93,970.65",,,,,,,,,,,,,,"127,543.60",,,,,,,,,,,,,,,,,,,,,,,N,N,N
1006132,110002025736,AUTUMN HILLS RECYCLING AND DISPOSAL FACILITY,ZEELAND,MI,49464,700 56TH AVENUE,OTTAWA COUNTY,42.78,-85.92,562212,"C,HH",Waste,"82,994.65",26.90,"82,967.75",,,,,,,,,,,26.90,,,,,,,,,,,,,,,,,,,,,,,,,,,,,,,,,"82,967.75",,,,N,N,N
1005770,110056954096,AUX SABLE LIQUID PRODUCTS INC,MORRIS,IL,60450,6155 EAST U.S. ROUTE 6,GRUNDY COUNTY,41.41,-88.30,211112,"C,,NN-FRAC,W-PROC","Natural Gas and Natural Gas Liquids Suppliers,Petroleum and Natural Gas Systems","257,597.19","254,277.70","3,176.75",142.74,,,,,,,,,,"237,595.76",,,,,,,,,,,,,,,,,,,20001.436,,,,,,,,,,,,,,,,,,N,N,N
1003033,110032601432,AVA LANDFILL,AVA,NY,13303,7044 ST RTE 294,ONEIDA COUNTY,43.46,-75.41,562212,"C,HH",Waste,"113,896.05",93.30,"113,802.75",,,,,,,,,,,93.30,,,,,,,,,,,,,,,,,,,,,,,,,,,,,,,,,"113,802.75",,,,N,N,N
1003328,110043803630,AVENAL REGIONAL LANDFILL,AVENAL,CA,93204,1200 Skyline Blvd,KINGS COUNTY,36.01,-120.12,562212,HH,Waste,"74,477.25",,"74,477.25",,,,,,,,,,,,,,,,,,,,,,,,,,,,,,,,,,,,,,,,,,,,"74,477.25",,,,N,N,N
1003082,110043808154,AVINGER GAS PLANT,Avinger,TX,75630,2339 Avinger Cut Off Road,MARION COUNTY,32.85,-94.59,211112,"C,W-PROC",Petroleum and Natural Gas Systems,"46,636.87","45,146.60","1,471.50",18.77,,,,,,,,,,"32,967.68",,,,,,,,,,,,,,,,,,,13669.198,,,,,,,,,,,,,,,,,,N,N,N
1007682,110001150227,AZUSA LAND RECLAMATION CO INC INERT LF,AZUSA,CA,91702,1211 W GLADSTONE ST,LOS ANGELES COUNTY,34.11,-117.93,562212,"C,HH",Waste,"118,184.62","7,034.50","111,146.25",3.87,,,,,,,,,,"7,041.62",,,,,,,,,,,,,,,,,,,,,,,,,,,,,,,,,"111,143.00",,,,N,N,N
1000378,110000471043,Abbott Laboratories,Casa Grande,AZ,85193,1250 West Maricopa Highway,PINAL COUNTY,32.89,-111.78,311514,C,Other,"29,317.54","29,287.40",13.75,16.39,,,,,,,,,,"29,317.54",,,,,,,,,,,,,,,,,,,,,,,,,,,,,,,,,,,,,N,N,N
1003205,110020667358,Abbott Nutrition - A Division of Abbott Laboratories,ALTAVISTA,VA,24517,1518 MAIN STREET,CAMPBELL COUNTY,37.13,-79.27,311514,C,Other,"27,510.69","27,481.90",13.00,15.79,,,,,,,,,,"27,510.69",,,,,,,,,,,,,,,,,,,,,,,,,,,,,,,,,,,,,N,N,N
1011661,110055951331,Abengoa Bioenergy Biomass of Kansas,Hugoton,KS,67951,1043 Road P,TEXAS COUNTY,37.00,-101.38,325193,C,Other,"28,165.15","27,942.60",88.75,133.80,,,,,,,,,"11,423.70","28,165.15",,,,,,,,,,,,,,,,,,,,,,,,,,,,,,,,,,,,,N,N,N
1010630,110054611979,Aberdeen Generating Station,Aberdeen,SD,57401,421 30th Ave SW,BROWN COUNTY,45.46,-98.50,221112,"C,D",Power Plants,"5,209.72","5,202.80",2.75,4.17,,,,,,,,,,112.10,"5,097.62",,,,,,,,,,,,,,,,,,,,,,,,,,,,,,,,,,,,N,N,N
1007357,110034168656,Abilene Regional Landfill,Abilene,TX,79601,,JONES COUNTY,32.53,-99.75,562212,HH,Waste,"66,878.00",,"66,878.00",,,,,,,,,,,,,,,,,,,,,,,,,,,,,,,,,,,,,,,,,,,,"66,878.00",,,,N,N,N
1001347,110012534766,Acadia Power Station,EUNICE,LA,70535,30385 CROWLEY EUNICE HWY,Acadia,30.43,-92.41,221112,D,Power Plants,"2,608,096.58","2,605,448.10","1,208.25","1,440.23",,,,,,,,,,,"2,608,096.58",,,,,,,,,,,,,,,,,,,,,,,,,,,,,,,,,,,,N,N,N
1008234,110070081980,Accident Station,Accident,MD,21520,196 Texas Eastern Drive,GARRETT COUNTY,39.63,-79.34,486210,"C,W-UNSTG",Petroleum and Natural Gas Systems,"22,735.12","20,918.50","1,805.00",11.62,,,,,,,,,,"20,937.67",,,,,,,,,,,,,,,,,,,,,1797.45,,,,,,,,,,,,,,,,N,N,N
1000125,110024408256,Ackerman Combined Cycle,ACKERMAN,MS,39735,2510 PENSACOLA ROAD,Choctaw,33.38,-89.20,221112,"C,D",Power Plants,"997,667.58","996,654.40",462.18,551.00,,,,,,,,,,102.05,"997,565.53",,,,,,,,,,,,,,,,,,,,,,,,,,,,,,,,,,,,N,N,N
1011325,110000459968,Acme Brick - Denton Plant,Denton,TX,76205,220 East Daniels St,DENTON COUNTY,33.18,-97.13,327121,C,Minerals,"46,661.52","46,613.30",22.00,26.22,,,,,,,,,,"46,661.52",,,,,,,,,,,,,,,,,,,,,,,,,,,,,,,,,,,,,N,N,N
1012051,110067543849,Acme Brick - Texas Clay Plants,Malakoff,TX,75148,402 E Bartlett,HENDERSON COUNTY,32.17,-96.02,327121,C,Minerals,"44,095.68","44,050.20",20.75,24.73,,,,,,,,,,"44,095.68",,,,,,,,,,,,,,,,,,,,,,,,,,,,,,,,,,,,,N,N,N
1003446,110018855041,Ada County Solid Waste Management,Boise,ID,83714,10300 Seaman's Gulch Road,ADA COUNTY,43.71,-116.28,562212,"C,HH",Waste,"138,760.55",190.60,"138,525.25",44.70,,,,,,,,,"12,206.10",254.30,,,,,,,,,,,,,,,,,,,,,,,,,,,,,,,,,"138,506.25",,,,N,N,N
1000603,110043799743,Addis Carbon Black Plant,Addis,LA,70710,5221 Sid Richardson Road,WEST BATON ROUGE PARISH,30.33,-91.28,325182,"C,X",Chemicals,"344,528.00","344,528.00",,,,,,,,,,,,0.00,,,,,,,,,,,,,,,,,,,,,,,,"344,528.00",,,,,,,,,,,,,N,N,N
1000089,110038495768,AdvanSix Resins & Chemicals LLC,PHILADELPHIA,PA,19137,2501 MARGARET STREET,Philadelphia,40.01,-75.07,325192,C,Chemicals,"153,432.77","153,274.10",72.25,86.42,,,,,,,,,,"153,432.77",,,,,,,,,,,,,,,,,,,,,,,,,,,,,,,,,,,,,N,N,N
1005068,110056958608,Advanced Graphite Materials LLC,ANMOORE,WV,26323,2698 PHILIPPI PIKE,HARRISON COUNTY,39.25,-80.29,335991,C,Other,"23,567.11","23,543.00",11.00,13.11,,,,,,,,,23.40,"23,567.11",,,,,,,,,,,,,,,,,,,,,,,,,,,,,,,,,,,,,N,N,N
1010185,110022533070,Advanced Magnesium Alloys Corporation,Anderson,IN,46013,1820 E. 32nd st.,MADISON COUNTY,40.09,-85.66,331492,T,Metals,"134,748.00",,,,,,"134,748.00",,,,,,,,,,,,,,,,,,,,,,"134,748.00",,,,,,,,,,,,,,,,,,,,,,N,N,N
1006553,110001234030,"Advanced Tri-Gen Power Systems, LLC",Mossville,IL,61552,1823 East Neal Lane,PEORIA COUNTY,40.84,-89.56,221112,C,Power Plants,"111,038.43","110,923.90",52.25,62.28,,,,,,,,,,"111,038.43",,,,,,,,,,,,,,,,,,,,,,,,,,,,,,,,,,,,,N,N,N
1012089,110055855800,"Aemetis Advanced Fuels Keyes, Inc.",Ceres,CA,95307,4209 Jessup Road,STANISLAUS COUNTY,37.55,-120.92,325193,C,Other,"69,882.14","69,809.80",33.00,39.34,,,,,,,,,,"69,882.14",,,,,,,,,,,,,,,,,,,,,,,,,,,,,,,,,,,,,N,N,N
1002316,110043804425,Aera Energy 25 Hill,Maricopa,CA,93252,29235 Highway 33,KERN COUNTY,35.09,-119.41,211111,C,Petroleum and Natural Gas Systems,"180,893.67","180,707.90",84.75,101.02,,,,,,,,,,"180,893.67",,,,,,,,,,,,,,,,,,,,,,,,,,,,,,,,,,,,,N,N,N
1002156,110043792483,Aera Energy Alberta Finley Shale,Fellows,CA,93224,25401 Highway 33,KERN COUNTY,35.23,-119.58,211111,C,Petroleum and Natural Gas Systems,"194,724.32","194,524.30",91.25,108.77,,,,,,,,,,"194,724.32",,,,,,,,,,,,,,,,,,,,,,,,,,,,,,,,,,,,,N,N,N
1006844,110070081958,Aera Energy Anderson Fitzgerald,McKittrick,CA,93251,59231 Main Camp Road,KERN COUNTY,35.30,-119.74,211111,C,Petroleum and Natural Gas Systems,"56,681.54","56,622.90",26.75,31.89,,,,,,,,,,"56,681.54",,,,,,,,,,,,,,,,,,,,,,,,,,,,,,,,,,,,,N,N,N
1006845,110043799752,Aera Energy Belridge,McKittrick,CA,93251,59231 Main Camp Road,KERN COUNTY,35.45,-119.72,211111,"C,NN-FRAC,W-PROC","Natural Gas and Natural Gas Liquids Suppliers,Petroleum and Natural Gas Systems","1,590,645.21","1,588,473.20","1,279.50",892.51,,,,,,,,,,"1,584,997.18",,,,,,,,,,,,,,,,,,,5648.026,,,,,,,,,,,,,,,,,,N,N,N
1003702,110043802757,Aera Energy Buena Fe,Maricopa,CA,93252,29235 Highway 33,KERN COUNTY,35.09,-119.41,211111,C,Petroleum and Natural Gas Systems,"29,928.69","29,898.00",14.00,16.69,,,,,,,,,,"29,928.69",,,,,,,,,,,,,,,,,,,,,,,,,,,,,,,,,,,,,N,N,N
1002315,110043797308,Aera Energy Calso,McKittrick,CA,93251,59231 Main Camp Road,KERN COUNTY,35.30,-119.74,211111,C,Petroleum and Natural Gas Systems,"23,919.06","23,894.40",11.25,13.41,,,,,,,,,,"23,919.06",,,,,,,,,,,,,,,,,,,,,,,,,,,,,,,,,,,,,N,N,N
1006405,110010484911,Aera Energy Coalinga,Coalinga,CA,93210,29010 Shell Road,FRESNO COUNTY,36.24,-120.32,211111,C,Petroleum and Natural Gas Systems,"244,581.23","244,329.70",114.75,136.78,,,,,,,,,,"244,581.23",,,,,,,,,,,,,,,,,,,,,,,,,,,,,,,,,,,,,N,N,N
1005790,110043793543,Aera Energy Lost Hills,McKittrick,CA,93251,59231 Main Camp Road,KERN COUNTY,35.30,-119.74,211111,C,Petroleum and Natural Gas Systems,"191,693.53","191,495.70",90.25,107.58,,,,,,,,,,"191,693.53",,,,,,,,,,,,,,,,,,,,,,,,,,,,,,,,,,,,,N,N,N
1006914,110043793552,Aera Energy MOCO,Maricopa,CA,93252,29235 Highway 33,KERN COUNTY,35.09,-119.41,211111,C,Petroleum and Natural Gas Systems,"375,813.48","375,425.50",177.00,210.98,,,,,,,,,,"375,813.48",,,,,,,,,,,,,,,,,,,,,,,,,,,,,,,,,,,,,N,N,N
1005635,110043793552,Aera Energy Metson,Maricopa,CA,93252,29235 Highway 33,KERN COUNTY,35.09,-119.41,211111,C,Petroleum and Natural Gas Systems,"43,986.38","43,940.90",20.75,24.73,,,,,,,,,,"43,986.38",,,,,,,,,,,,,,,,,,,,,,,,,,,,,,,,,,,,,N,N,N
1006846,110001175530,Aera Energy San Ardo,San Ardo,CA,93450,66893 Sargent Road,MONTEREY COUNTY,35.95,-120.86,211111,C,Petroleum and Natural Gas Systems,"222,975.86","222,745.70",105.00,125.16,,,,,,,,,,"222,975.86",,,,,,,,,,,,,,,,,,,,,,,,,,,,,,,,,,,,,N,N,N
1009944,110043792483,Aera Energy Wier Gore Maxwell,Fellows,CA,93224,25401 Highway 33,KERN COUNTY,35.23,-119.58,211111,C,Petroleum and Natural Gas Systems,"52,793.45","52,739.20",24.75,29.50,,,,,,,,,,"52,793.45",,,,,,,,,,,,,,,,,,,,,,,,,,,,,,,,,,,,,N,N,N
1006556,110007007416,Afton Generating Station,LA MESA,NM,88044,10100 WEST AFTON ROAD,Dona Ana,32.11,-106.85,221112,"C,D",Power Plants,"281,481.71","281,196.20",130.25,155.26,,,,,,,,,,"1,147.00","280,334.71",,,,,,,,,,,,,,,,,,,,,,,,,,,,,,,,,,,,N,N,N
1002365,110000414061,Ag Processing Inc,Sergeant Bluff,IA,51054,2753 Port Neal Circle,WOODBURY COUNTY,42.31,-96.36,311222,C,Other,"14,104.05","14,089.50",6.50,8.05,,,,,,,,,,"14,104.05",,,,,,,,,,,,,,,,,,,,,,,,,,,,,,,,,,,,,N,N,N
1008358,110010658252,Agave Dagger Draw Gas Plant,Artesia,NM,88210,278 Pipeline Road,EDDY COUNTY,32.72,-104.45,211111,"C,PP,UU,W-PROC","Injection of CO2,Petroleum and Natural Gas Systems,Suppliers of CO2","15,069.65","13,325.30","1,737.50",6.85,,,,,,,,,,"7,270.07",,,,,,,,,,,,,,,,,,,7799.582,,,,,,,,,,,,,,,,,,N,N,N
1011305,110040608205,Agri-Mark,Middlebury,VT,05753,869 Exchange St,ADDISON COUNTY,44.03,-73.17,311513,C,Other,"17,785.93","17,769.10",7.00,9.83,,,,,,,,,,"17,785.93",,,,,,,,,,,,,,,,,,,,,,,,,,,,,,,,,,,,,N,N,N
1012864,110070126718,Agropur,Jeorme,ID,83338,547 West Nez Perce,JEROME COUNTY,42.71,-114.53,311513,C,Other,"28,290.34","28,261.30",13.25,15.79,,,,,,,,,,"28,290.34",,,,,,,,,,,,,,,,,,,,,,,,,,,,,,,,,,,,,N,N,N
1007206,110000780851,Agua Fria Generating Station,GLENDALE,AZ,85303,7302 W NORTHERN AVE,Maricopa,33.55,-112.22,221112,"C,D",Power Plants,"77,901.36","77,823.00",35.75,42.61,,,,,,,,,,"1,549.14","76,352.22",,,,,,,,,,,,,,,,,,,,,,,,,,,,,,,,,,,,N,N,N
1000423,110028012237,Agua Mansa Power,COLTON,CA,92324,2040 AGUA MANSA ROAD,San Bernardino,34.04,-117.36,221112,D,Power Plants,"8,082.52","8,074.30",3.75,4.47,,,,,,,,,,,"8,082.52",,,,,,,,,,,,,,,,,,,,,,,,,,,,,,,,,,,,N,N,N
1007273,110000422043,Ahlstrom - Munksjo Mosinee LLC,MOSINEE,WI,54455,100 MAIN STREET,MARATHON COUNTY,44.79,-89.70,322121,"AA,C,TT","Pulp and Paper,Waste","180,446.96","171,357.80","7,340.50","1,748.66",,,,,,,,,"198,792.70","156,873.26",,,,,,,,,,,,,,,,,,,,,,,,,,,"16,900.21",,,,,,,,,"6,673.50",N,N,N
1011038,110011266003,"Ahlstrom Filtration, LLC.",Taylorville,IL,62568,1200 East Elm Street,CHRISTIAN COUNTY,39.56,-89.28,322121,C,Pulp and Paper,"19,065.53","19,045.80",9.00,10.73,,,,,,,,,,"19,065.53",,,,,,,,,,,,,,,,,,,,,,,,,,,,,,,,,,,,,N,N,N
1005991,110000422383,Ahlstrom-Munksjo NA Specialty Solutions LLC,RHINELANDER,WI,54501,515 W DAVENPORT ST,ONEIDA COUNTY,45.64,-89.42,322121,C,Pulp and Paper,"227,234.89","225,756.30",545.25,933.34,,,,,,,,,,"227,234.89",,,,,,,,,,,,,,,,,,,,,,,,,,,,,,,,,,,,,N,N,N
1004045,110000420884,Ahlstrom-Munksjo North America SPECIALTY SOLUTIONS,DEPERE,WI,54115,200 MAIN AVE,BROWN COUNTY,44.45,-88.07,322121,C,Pulp and Paper,"107,437.98","106,572.50",311.50,553.98,,,,,,,,,"1,794.40","107,437.98",,,,,,,,,,,,,,,,,,,,,,,,,,,,,,,,,,,,,N,N,N
1007253,110043973055,Air Liquide Hydrogen Plant,Anacortes,WA,98221,8581 South Texas Road,SKAGIT COUNTY,48.47,-122.55,325120,P,Chemicals,"64,413.10","64,413.10",,,,,,,,,,,,,,,,,,,,,,,"64,413.10",,,,,,,,,,,,,,,,,,,,,,,,,,N,N,N
1006711,110000462758,Air Liquide Large Industries US - SMR,Pasadena,TX,77507,11400 Bay Area Blvd.,HARRIS COUNTY,29.62,-95.05,325120,P,Chemicals,"575,493.30","575,493.30",,,,,,,,,,,,,,,,,,,,,,,"575,493.30",,,,,,,,,,,,,,,,,,,,,,,,,,N,N,N
1004442,110041624873,Air Products LLC - Corpus Christi,Corpus Christi,TX,78407,5401 Up River Road,NUECES COUNTY,27.81,-97.46,325120,P,Chemicals,"159,113.50","159,113.50",,,,,,,,,,,,,,,,,,,,,,,"159,113.50",,,,,,,,,,,,,,,,,,,,,,,,,,N,N,N
1006943,110043799958,Air Products LLC - Pasadena SMR,Pasadena,TX,77506,1435 Highway 225,HARRIS COUNTY,29.72,-95.19,325120,P,Chemicals,"501,160.70","501,160.70",,,,,,,,,,,,,,,,,,,,,,,"501,160.70",,,,,,,,,,,,,,,,,,,,,,,,,,N,N,N
1003160,110000463622,Air Products La Porte Facility,La Porte,TX,77571,10202 Strang Rd,HARRIS COUNTY,29.70,-95.07,325120,"C,D",Power Plants,"90,494.12","90,418.50",34.50,41.12,,,,,,,,,,"34,825.43","55,668.69",,,,,,,,,,,,,,,,,,,,,,,,,,,,,,,,,,,,N,N,N
1006402,110043802819,Air Products Port Arthur Facility,Port Arthur,TX,77640,1801 S Gulfway Dr within Valero Refinery,JEFFERSON COUNTY,29.86,-93.97,325120,"C,P,PP","Chemicals,Suppliers of CO2","2,568,728.73","2,567,468.10",482.25,778.38,,,,,,,,,,"711,281.63",,,,,,,,,,,"1,857,447.10",,,,,,,,,,,,,,,,,,,,,,,,,,N,Y,N
1011460,110055569567,Air Products and Chemicals - Norco SMR,Norco,LA,70079,14885 Airline Drive,ST. CHARLES PARISH,30.02,-90.41,325120,P,Chemicals,"1,139,730.20","1,139,730.20",,,,,,,,,,,,,,,,,,,,,,,"1,139,730.20",,,,,,,,,,,,,,,,,,,,,,,,,,N,N,N
1010506,110015670521,Air Products and Chemicals Inc. Luling SMR Facility,Luling,LA,70070,12501 River Road B,ST. CHARLES PARISH,29.92,-90.35,325120,P,Chemicals,"824,262.50","824,262.50",,,,,,,,,,,,,,,,,,,,,,,"824,262.50",,,,,,,,,,,,,,,,,,,,,,,,,,N,N,N
1010625,110054838459,Air Products and Chemicals Inc./Detroit Hydrogen Facility Marathon Refinery,Detroit,MI,48217,1025 Oakwood Blvd,WAYNE COUNTY,42.29,-83.16,325120,P,Chemicals,"370,983.00","370,983.00",,,,,,,,,,,,,,,,,,,,,,,"370,983.00",,,,,,,,,,,,,,,,,,,,,,,,,,N,N,N
1005573,110004721515,"Air Products and Chemicals, Inc.",Cincinnati,OH,45232,4900 Este Avenue,HAMILTON COUNTY,39.18,-84.50,325120,"C,P",Chemicals,"29,374.82","29,365.50",4.25,5.07,,,,,,,,,,"9,058.42",,,,,,,,,,,"20,316.40",,,,,,,,,,,,,,,,,,,,,,,,,,N,N,N
1004586,110041624472,"Air Products and Chemicals, Inc. - BR SMR","Baton Rouge, La",LA,70805,2 Gulf States Utility Rd,EAST BATON ROUGE PARISH,30.49,-91.19,325120,P,Chemicals,"860,866.60","860,866.60",,,,,,,,,,,,,,,,,,,,,,,"860,866.60",,,,,,,,,,,,,,,,,,,,,,,,,,N,N,N
1005852,110000595339,"Air Products and Chemicals, Inc. - Joliet, IL H2 Plant",Channahon,IL,60410,25915 S.E. Frontage Road (c/o ExxonMobil),WILL COUNTY,41.41,-88.18,325120,P,Chemicals,"33,806.10","33,806.10",,,,,,,,,,,,,,,,,,,,,,,"33,806.10",,,,,,,,,,,,,,,,,,,,,,,,,,N,N,N
1010624,110002003153,Akutan Seafood Processing Facility,Akutan,AK,99553,73 Salmon Way,ALEUTIANS EAST BOROUGH,54.13,-165.79,311712,C,Other,"50,711.87","50,524.60",56.75,130.52,,,,,,,,,389.80,"50,711.87",,,,,,,,,,,,,,,,,,,,,,,,,,,,,,,,,,,,,N,N,N
1010593,110000741243,"Akzo Nobel Functional Chemicals, LLC",Axis,AL,36505,13440 Highway 43 North,MOBILE COUNTY,30.97,-88.02,325188,C,Chemicals,"24,970.90","24,944.60",12.00,14.30,,,,,,,,,,"24,970.90",,,,,,,,,,,,,,,,,,,,,,,,,,,,,,,,,,,,,N,N,N
1006235,110002083922,Aladdin Manufacturing - Glasgow facility,GLASGOW,VA,24555,404 ANDERSON STREET,ROCKBRIDGE COUNTY,37.64,-79.45,314110,C,Other,"15,309.58","15,291.40",7.75,10.43,,,,,,,,,,"15,309.58",,,,,,,,,,,,,,,,,,,,,,,,,,,,,,,,,,,,,N,N,N
1005138,110043799609,Alamance County Landfill,Graham,NC,27253,2701 Austin Quarter Rd.,ALAMANCE COUNTY,35.93,-79.29,562212,HH,Waste,"119,231.50",,"119,231.50",,,,,,,,,,,,,,,,,,,,,,,,,,,,,,,,,,,,,,,,,,,,"119,231.50",,,,N,N,N
1007208,110000860355,Alamo San Antonio Cement Plant,San Antonio,TX,78266,6055 West Green Mountain Road,BEXAR COUNTY,29.61,-98.37,327999,H,Minerals,"755,595.39","753,289.90",843.50,"1,461.99",,,,,,,,,,,,,,,"755,595.39",,,,,,,,,,,,,,,,,,,,,,,,,,,,,,,,N,N,N
1010937,110013681809,"Alaska Village Electric Cooperative, Inc.",Anchorage,AK,99503,4831 Eagle Street,ANCHORAGE MUNICIPALITY,61.18,-149.88,221112,C,Power Plants,"31,204.00","31,097.40",31.50,75.10,,,,,,,,,,"31,204.00",,,,,,,,,,,,,,,,,,,,,,,,,,,,,,,,,,,,,N,N,N
1003570,110022810573,Albemarle Corporation Bayport Plant,Pasadena,TX,77507,13000 Bay Park Road,HARRIS COUNTY,29.64,-95.07,325188,C,Chemicals,"112,093.32","111,977.10",52.75,63.47,,,,,,,,,,"112,093.32",,,,,,,,,,,,,,,,,,,,,,,,,,,,,,,,,,,,,N,N,N
1009825,110001566421,"Albert Einstein College of Medicine, Inc.",Bronx,NY,10461,1300 Morris Park Ave,BRONX COUNTY,40.85,-73.84,622110,C,Other,"38,757.24","38,704.40",21.25,31.59,,,,,,,,,,"38,757.24",,,,,,,,,,,,,,,,,,,,,,,,,,,,,,,,,,,,,N,N,N
1003448,110001138572,"Alcon Vision, LLC",FORT WORTH,TX,76134,6201 SOUTH FREEWAY,TARRANT COUNTY,32.66,-97.32,325412,C,Chemicals,"33,980.07","33,945.00",16.00,19.07,,,,,,,,,,"33,980.07",,,,,,,,,,,,,,,,,,,,,,,,,,,,,,,,,,,,,N,N,N
1003411,110043802846,Alderson Regional Landfill,ALDERSON,OK,74522,201 SOUTH FIFTH STREET,PITTSBURG COUNTY,34.89,-95.69,562212,HH,Waste,"28,150.50",,"28,150.50",,,,,,,,,,,,,,,,,,,,,,,,,,,,,,,,,,,,,,,,,,,,"28,150.50",,,,N,N,N
1000955,110005089386,Alex Ty Cooke Generating Station,LUBBOCK,TX,79404,3500 E SLATON HWY,Lubbock,33.52,-101.79,221112,"C,D",Power Plants,"39,811.60","39,771.60",18.25,21.75,,,,,,,,,,385.10,"39,426.50",,,,,,,,,,,,,,,,,,,,,,,,,,,,,,,,,,,,N,N,N
1005044,110043805790,"Algonquin Power Sanger, LLC",Sanger,CA,93657,1125 Muscat Avenue,FRESNO COUNTY,36.69,-119.55,221119,C,Power Plants,"58,276.98","58,216.70",27.50,32.78,,,,,,,,,,"58,276.98",,,,,,,,,,,,,,,,,,,,,,,,,,,,,,,,,,,,,N,N,N
1006409,110024519001,"Algonquin Power Windsor Locks, LLC",WINDSOR LOCKS,CT,06096,26 CANAL BANK RD,Hartford,41.92,-72.63,221112,"C,D",Power Plants,"87,350.31","87,257.90",41.75,50.66,,,,,,,,,,"83,013.34","4,336.97",,,,,,,,,,,,,,,,,,,,,,,,,,,,,,,,,,,,N,N,N
1011361,110001154535,All American Asphalt,Corona,CA,92879,1776 All American Way,RIVERSIDE COUNTY,33.87,-117.52,324121,C,Petroleum and Natural Gas Systems,"12,792.85","12,779.70",6.00,7.15,,,,,,,,,,"12,792.85",,,,,,,,,,,,,,,,,,,,,,,,,,,,,,,,,,,,,N,N,N
1001217,110001599789,Allegany Generating Station,Portageville,NY,14536,11537 ROUTE 19A,Allegany,42.51,-78.07,221112,"C,D",Power Plants,"48,914.72","48,865.40",22.50,26.82,,,,,,,,,,194.60,"48,720.12",,,,,,,,,,,,,,,,,,,,,,,,,,,,,,,,,,,,N,N,N
1004729,110022522279,"Allegheny & Tsingshan Stainless, LLC",Midland,PA,15059,952 Tenth Street,BEAVER COUNTY,40.64,-80.45,331111,"C,Q",Metals,"63,636.41","63,597.50",17.75,21.16,,,,,,,,,,"37,483.81",,,,,,,,,,,,"26,152.60",,,,,,,,,,,,,,,,,,,,,,,,,N,N,N
1002050,110055507447,Allen,Allen,OK,74825,,HUGHES COUNTY,34.87,-96.35,486210,"C,W-NGTC",Petroleum and Natural Gas Systems,"29,125.59","28,193.80",916.00,15.79,,,,,,,,,,"28,222.34",,,,,,,,,,,,,,,,,,,,903.25,,,,,,,,,,,,,,,,,N,N,N
1000916,110000374130,Allen,MEMPHIS,TN,38109,2574 PLANT RD,Shelby,35.07,-90.14,221112,"C,D",Power Plants,"3,328,482.10","3,302,409.30","9,536.78","16,536.02",,,,,,,,,,"4,790.88","3,323,691.22",,,,,,,,,,,,,,,,,,,,,,,,,,,,,,,,,,,,N,N,N
1000691,110000423612,Allen S King,OAK PARK HEIGHTS,MN,55003,1103 KING PLANT RD,Washington,45.03,-92.78,221112,"C,D",Power Plants,"3,016,435.37","3,000,645.10",789.25,"15,001.02",,,,,,,,,,"3,375.34","3,013,060.04",,,,,,,,,,,,,,,,,,,,,,,,,,,,,,,,,,,,N,N,N
1011298,110058379936,Alliance Compressor Station,Justin,TX,76247,12721 Highway 114,DENTON COUNTY,33.04,-97.33,486210,"C,W-PROC",Petroleum and Natural Gas Systems,"44,107.52","42,317.40","1,786.25",3.87,,,,,,,,,,"6,977.62",,,,,,,,,,,,,,,,,,,37129.9,,,,,,,,,,,,,,,,,,N,N,N
1006841,110021152090,Alliance Pipeline L.P. Albert Lea 25-A,Albert Lea,MN,56007,85485 200th Street,FREEBORN COUNTY,43.64,-93.16,486210,"C,W-NGTC",Petroleum and Natural Gas Systems,"87,455.77","87,152.90",254.00,48.87,,,,,,,,,,"87,242.47",,,,,,,,,,,,,,,,,,,,213.3,,,,,,,,,,,,,,,,,N,N,N
1000890,110043973938,Allison Compressor Station,Decatur,TX,76234,,WISE COUNTY,33.20,-97.42,486210,C,Petroleum and Natural Gas Systems,"89,982.01","89,889.40",42.25,50.36,,,,,,,,,,"89,982.01",,,,,,,,,,,,,,,,,,,,,,,,,,,,,,,,,,,,,N,N,N
1009920,110055518355,Alma No. 1 Mine,Ethel,WV,25076,1421 Band Mill Hollow Rd,LOGAN COUNTY,37.87,-81.89,212112,FF,Other,0.00,0.00,,,,,,,,,,,,,,,,,,,,,,,,,,,,,,,,,,,,,,,,,,,0.00,,,,,,N,N,N
1007315,110021087517,Almond Power Plant,MODESTO,CA,95358,4500 CROWS LANDING ROAD,Stanislaus,37.57,-120.99,221112,D,Power Plants,"104,443.31","104,337.00",48.50,57.81,,,,,,,,,,,"104,443.31",,,,,,,,,,,,,,,,,,,,,,,,,,,,,,,,,,,,N,N,N
1003689,110017887330,Alon Bakersfield Refining,Bakersfield,CA,93308,6451 Rosedale Highway,KERN COUNTY,35.38,-119.07,324110,"C,Y",Refineries,"16,102.86","15,812.00",277.75,13.11,,,,,,,,,,"14,222.00",,,,,,,,,,,,,,,,,,,,,,,,,"1,880.87",,,,,,,,,,,,N,N,N
1005826,110037574808,"AlphaPET, Inc.",Decatur,AL,35601,1301 Finley Island Road,MORGAN COUNTY,34.64,-87.05,325211,C,Other,"40,264.15","40,222.50",19.00,22.65,,,,,,,,,,"40,264.15",,,,,,,,,,,,,,,,,,,,,,,,,,,,,,,,,,,,,N,N,N
1012036,110028118757,"AltEn, LLC",Mead,NE,68041,1344 County Road 10,SAUNDERS COUNTY,41.20,-96.48,325193,"C,II","Other,Waste","51,139.51","24,139.10","26,987.00",13.41,,,,,,,,,,"24,163.76",,,,,,,,,,,,,,,,,,,,,,,,,,,,,,,,,,"26,975.75",,,N,N,N
1001625,110000508086,AltaGas Ripon Energy Inc.,Ripon,CA,95366,944 South Stockton Ave.,SAN JOAQUIN COUNTY,37.73,-121.12,221112,C,Power Plants,"24,566.31","24,541.10",11.50,13.71,,,,,,,,,,"24,566.31",,,,,,,,,,,,,,,,,,,,,,,,,,,,,,,,,,,,,N,N,N
1007072,110008153032,"Altair Disposal Services, LLC",Altair,TX,77412,5464 Highway 71,COLORADO COUNTY,29.58,-96.46,562212,HH,Waste,"32,213.00",,"32,213.00",,,,,,,,,,,,,,,,,,,,,,,,,,,,,,,,,,,,,,,,,,,,"32,213.00",,,,N,N,N
1007699,110000831404,Altamont Landfill & Resource Recovery Facility,Livermore,CA,94551,10840 Altamont Pass Road,ALAMEDA COUNTY,37.75,-121.65,562212,"C,HH",Waste,"200,940.96",,"200,778.25",162.71,,,,,,,,,"45,107.30",231.71,,,,,,,,,,,,,,,,,,,,,,,,,,,,,,,,,"200,709.25",,,,N,N,N
1001229,110002401847,Altavista Power Station,ALTAVISTA,VA,24517,104 WOOD LANE,Campbell,37.12,-79.27,221119,D,Power Plants,"4,963.33",,713.25,"4,250.08",,,,,,,,,"393,183.00",,"4,963.33",,,,,,,,,,,,,,,,,,,,,,,,,,,,,,,,,,,,N,N,N
1004861,110015379455,"Alto ICP, LLC",PEKIN,IL,61554,1301 S FRONT ST,TAZEWELL COUNTY,40.56,-89.67,312140,C,Other,"131,067.70","130,465.10",178.25,424.35,,,,,,,,,165.00,"131,067.70",,,,,,,,,,,,,,,,,,,,,,,,,,,,,,,,,,,,,N,N,N
1003209,110055508240,Amber Junction Compressor Station,AMBER,OK,73004,1081 County Road 1280,GRADY COUNTY,35.16,-97.86,486210,"C,W-NGTC",Petroleum and Natural Gas Systems,"29,149.91","24,328.70","4,807.50",13.71,,,,,,,,,,"24,348.41",,,,,,,,,,,,,,,,,,,,4801.5,,,,,,,,,,,,,,,,,N,N,N
1000413,110000438036,"Alto Pekin, LLC",PEKIN,IL,61554,1300 SOUTH 2ND STREET,Tazewell,40.56,-89.66,325193,"C,II,PP","Other,Suppliers of CO2,Waste","332,748.78","331,344.10",590.25,814.43,,,,,,,,,"5,628.30","332,645.03",,,,,,,,,,,,,,,,,,,,,,,,,,,,,,,,,,103.75,,,N,N,N
1004465,110043799547,American Canyon Landfill,American Canyon,CA,94503,,NAPA COUNTY,38.18,-122.28,562212,HH,Waste,"52,274.75",,"52,274.75",,,,,,,,,,,,,,,,,,,,,,,,,,,,,,,,,,,,,,,,,,,,"52,274.75",,,,N,N,N
1006878,110022357180,American Crystal Sugar Company - Drayton,Drayton,ND,58225,8152 Old Highway 44,PEMBINA COUNTY,48.59,-97.18,311313,"C,S,TT","Minerals,Waste","332,356.35","282,481.60","48,727.75","1,147.00",,,,,,,,,,"259,746.80",,,,,,,,,,,,,,"24,543.30",,,,,,,,,,,,,,,,,,,,,,"48,066.25",Y,N,N
1010323,110055520404,American Eagle,Cabin Creek,WV,25035,"200 Remington Coal Lane, Coal Fork Hollow",KANAWHA COUNTY,38.09,-81.53,212112,FF,Other,"500,494.25",,"500,494.25",,,,,,,,,,,,,,,,,,,,,,,,,,,,,,,,,,,,,,,,,,"500,494.25",,,,,,N,N,N
1001859,110000732823,"American Sugar Refining, Inc. - Baltimore Refinery",BALTIMORE,MD,21230,1100 KEY HIGHWAY EAST,BALTIMORE CITY,39.28,-76.57,311312,C,Other,"104,727.68","104,614.00",50.50,63.18,,,,,,,,,,"104,727.68",,,,,,,,,,,,,,,,,,,,,,,,,,,,,,,,,,,,,N,N,N
