Facility Id,FRS Id,Facility Name,City,State,Zip Code,Address,County,Latitude,Longitude,Primary NAICS Code,Industry Type (subparts),Industry Type (sectors),Total reported direct emissions,CO2 emissions (non-biogenic) ,Methane (CH4) emissions ,Nitrous Oxide (N2O) emissions ,HFC emissions,PFC emissions,SF6 emissions ,NF3 emissions,Other Fully Fluorinated GHG emissions,HFE emissions,Very Short-lived Compounds emissions,Other GHGs (metric tons CO2e),Biogenic CO2 emissions (metric tons),Stationary Combustion,Electricity Generation,Adipic Acid Production,Aluminum Production,Ammonia Manufacturing,Cement Production,Electronics Manufacture,Ferroalloy Production,Fluorinated GHG Production,Glass Production,HCFC–22 Production from HFC–23 Destruction,Hydrogen Production,Iron and Steel Production,Lead Production,Lime Production,Magnesium Production,Miscellaneous Use of Carbonates,Nitric Acid Production,Petroleum and Natural Gas Systems – Offshore Production,Petroleum and Natural Gas Systems – Processing,Petroleum and Natural Gas Systems – Transmission/Compression,Petroleum and Natural Gas Systems – Underground Storage,Petroleum and Natural Gas Systems – LNG Storage,Petroleum and Natural Gas Systems – LNG Import/Export,Petrochemical Production,Petroleum Refining,Phosphoric Acid Production,Pulp and Paper Manufacturing,Silicon Carbide Production,Soda Ash Manufacturing,Titanium Dioxide Production,Underground Coal Mines,Zinc Production,Municipal Landfills,Industrial Wastewater Treatment,Manufacture of Electric Transmission and Distribution Equipment,Industrial Waste Landfills,Is some CO2 collected on-site and used to manufacture other products and therefore not emitted from the affected manufacturing process unit(s)? (as reported under Subpart G or S),"Is some CO2 reported as emissions from the affected manufacturing process unit(s) under Subpart AA, G or P collected and transferred off-site or injected (as reported under Subpart PP)?",Does the facility employ continuous emissions monitoring? 
1004377,110043803578,121 REGIONAL DISPOSAL FACILITY,MELISSA,TX,75454,3820 SAM RAYBURN HIGHWAY,COLLIN COUNTY,33.30,-96.54,562212,HH,Waste,"204,000.00",,"204,000.00",,,,,,,,,,,,,,,,,,,,,,,,,,,,,,,,,,,,,,,,,,,,"204,000.00",,,,N,N,N
1010040,110070082056,15-18565/15-18662,Hazard,KY,40701,4200 S. Hwy 15,PERRY COUNTY,37.22,-83.16,212112,FF,Other,"348,450.75",,"348,450.75",,,,,,,,,,,,,,,,,,,,,,,,,,,,,,,,,,,,,,,,,,"348,450.75",,,,,,N,N,N
1010085,110055519176,15-19015,Hazard,KY,41701,1845 S. KY HWY 15,PERRY,37.24,-83.18,212112,FF,Other,"41,513.00",,"41,513.00",,,,,,,,,,,,,,,,,,,,,,,,,,,,,,,,,,,,,,,,,,"41,513.00",,,,,,N,N,N
1000112,110019827286,23rd and 3rd,BROOKLYN,NY,11232,730 3rd Avenue,Kings,40.66,-74.00,221112,"C,D",Power Plants,"68,984.74","68,914.60",32.00,38.14,,,,,,,,,,180.70,"68,804.04",,,,,,,,,,,,,,,,,,,,,,,,,,,,,,,,,,,,N,N,N
1006394,,29-6 #2 Central Delivery Point,Blanco,NM,87412,,Rio Arriba,36.75,-107.45,213112,C,Petroleum and Natural Gas Systems,"10,872.56","10,861.60",5.00,5.96,,,,,,,,,,"10,872.56",,,,,,,,,,,,,,,,,,,,,,,,,,,,,,,,,,,,,N,N,N
1002885,,30-5 Compressor Station,Aztec,NM,87410,,Rio Arriba,36.81,-107.40,213112,C,Petroleum and Natural Gas Systems,"26,701.30","26,673.90",12.50,14.90,,,,,,,,,,"26,701.30",,,,,,,,,,,,,,,,,,,,,,,,,,,,,,,,,,,,,N,N,N
1002707,,31-6 Central Delivery Point,BLOOMFIELD,NM,87413,,Rio Arriba,36.84,-107.42,213112,C,Petroleum and Natural Gas Systems,"66,669.84","66,599.60",31.50,38.74,,,,,,,,,,"66,669.84",,,,,,,,,,,,,,,,,,,,,,,,,,,,,,,,,,,,,N,N,N
1003742,110010392887,31st Street Landfill,WESTCHESTER,IL,60154,11700 W 31ST ST,COOK COUNTY,41.84,-87.92,562212,HH,Waste,"87,357.75",,"87,357.75",,,,,,,,,,,,,,,,,,,,,,,,,,,,,,,,,,,,,,,,,,,,"87,357.75",,,,N,N,N
1002718,110043815725,32-7 Central Delivery Point,Blanco,NM,87412,,SAN JUAN,36.93,-107.56,213112,C,Petroleum and Natural Gas Systems,"49,092.72","49,042.90",23.00,26.82,,,,,,,,,,"49,092.72",,,,,,,,,,,,,,,,,,,,,,,,,,,,,,,,,,,,,N,N,N
1002721,110070081839,32-8 #2 Central Delivery Point,Blanco,NM,87412,,SAN JUAN COUNTY,36.96,-107.66,213112,C,Petroleum and Natural Gas Systems,"49,628.32","49,578.00",23.50,26.82,,,,,,,,,,"49,628.32",,,,,,,,,,,,,,,,,,,,,,,,,,,,,,,,,,,,,N,N,N
1003188,110000599273,3M BROWNWOOD,BROWNWOOD,TX,76801,4501 HIGHWAY 377 SOUTH,BROWN,31.67,-99.00,326113,"C,N",Minerals,"33,671.92","33,637.40",15.75,18.77,,,,,,,,,,"33,483.42",,,,,,,,,188.50,,,,,,,,,,,,,,,,,,,,,,,,,,,,N,N,N
1005043,110035810799,3M CO,MAPLEWOOD,MN,55144,,RAMSEY COUNTY,44.95,-93.00,541712,C,Other,"72,407.03","72,332.20",34.00,40.83,,,,,,,,,,"72,407.03",,,,,,,,,,,,,,,,,,,,,,,,,,,,,,,,,,,,,N,N,N
1003739,110000589159,3M CO - GUIN,GUIN,AL,35563,6675 US HIGHWAY 43,MARION,33.97,-87.90,326113,"C,N",Minerals,"31,178.79","31,148.10",14.00,16.69,,,,,,,,,,"29,696.29",,,,,,,,,"1,482.50",,,,,,,,,,,,,,,,,,,,,,,,,,,,N,N,N
1007698,110000421776,3M CO - WAUSAU DOWNTOWN,WAUSAU,WI,54401,144 ROSECRANS ST,MARATHON,44.95,-89.64,212313,C,Other,"27,702.30","27,673.80",13.00,15.50,,,,,,,,,,"27,702.30",,,,,,,,,,,,,,,,,,,,,,,,,,,,,,,,,,,,,N,N,N
1004206,110000367567,3M COMPANY,DECATUR,AL,35609,1400 STATE DOCKS RD.,MORGAN,34.64,-87.04,325211,"C,L,OO","Chemicals,Industrial Gas Suppliers","57,279.46","54,327.50",25.75,30.99,74.00,,,,600.00,,1.22,"2,220.00",,"54,384.24",,,,,,,,"2,895.22",,,,,,,,,,,,,,,,,,,,,,,,,,,,,N,N,N
1006665,110013886875,3M CORDOVA,CORDOVA,IL,61242,22614 ROUTE 84 NORTH,ROCK ISLAND,41.76,-90.28,325998,"C,L,OO","Chemicals,Industrial Gas Suppliers","1,485,532.25","28,254.20",14.00,18.18,"84,204.18","825,213.71","24,484.92","27,100.32","478,600.26","4,244.28",3.00,"13,395.20",,"28,286.38",,,,,,,,"1,457,245.87",,,,,,,,,,,,,,,,,,,,,,,,,,,,,N,N,N
1004836,110000423667,3M Cottage Grove Center - Site,Cottage Grove,MN,55016,10746 Innovation Rd,WASHINGTON COUNTY,44.79,-92.91,325998,"C,L,N,OO","Chemicals,Industrial Gas Suppliers,Minerals","56,198.97","35,395.40",35.75,50.66,,"1,573.80","1,224.36",,"12,479.00",,,"5,440.00","2,273.00","34,392.61",,,,,,,,"20,717.16","1,089.20",,,,,,,,,,,,,,,,,,,,,,,,,,,,N,N,N
1003408,110040995199,3M INDUSTRIAL MINERAL PRODUCTS DIVISION,LITTLE ROCK,AR,72206,3110 WALTERS DRIVE,PULASKI COUNTY,34.71,-92.24,212399,C,Other,"21,306.22","21,284.30",10.00,11.92,,,,,,,,,,"21,306.22",,,,,,,,,,,,,,,,,,,,,,,,,,,,,,,,,,,,,N,N,N
1004914,110000425059,3M MAGNETIC TAPE MANUFACTURING DIVISION,HUTCHINSON,MN,55350,905-915 ADAMS STREET SOUTHEAST,MCLEOD COUNTY,44.88,-94.36,322222,C,Pulp and Paper,"36,169.06","36,131.80",17.00,20.26,,,,,,,,,,"36,169.06",,,,,,,,,,,,,,,,,,,,,,,,,,,,,,,,,,,,,N,N,N
1004804,110000443805,3M NEVADA PLANT,NEVADA,MO,64772,2120 E. AUSTIN,VERNON COUNTY,37.83,-94.33,326113,C,Other,"28,930.99","28,901.40",13.50,16.09,,,,,,,,,,"28,930.99",,,,,,,,,,,,,,,,,,,,,,,,,,,,,,,,,,,,,N,N,N
1007408,110055511780,4 West Mine,Dilliner,PA,15327,625 Bald Hill Church Road,GREENE,39.76,-80.00,212112,FF,Other,"61,192.50",,"61,192.50",,,,,,,,,,,,,,,,,,,,,,,,,,,,,,,,,,,,,,,,,,"61,192.50",,,,,,N,N,N
1001106,110040862527,48th Street Peaking Station,HOLLAND,MI,49423,491 E 48TH ST,Allegan,42.76,-86.09,221112,"C,D",Power Plants,"29,574.24","29,544.10",13.75,16.39,,,,,,,,,,57.60,"29,516.64",,,,,,,,,,,,,,,,,,,,,,,,,,,,,,,,,,,,N,N,N
1004680,110013945062,58TH ST LF (MAIN COUNTY LF),MIAMI,FL,33178,8831 NW 58TH ST,MIAMI-DADE COUNTY,25.83,-80.35,562212,HH,Waste,"100,776.50",,"100,776.50",,,,,,,,,,,,,,,,,,,,,,,,,,,,,,,,,,,,,,,,,,,,"100,776.50",,,,N,N,N
1000766,110019296509,59th Street,NEW YORK,NY,10019,850 12TH AVE,New York,40.77,-73.99,221330,C,Power Plants,"199,034.55","198,598.50",145.50,290.55,,,,,,,,,,"199,034.55",,,,,,,,,,,,,,,,,,,,,,,,,,,,,,,,,,,,,N,N,N
1007733,110041047505,69TH ST WWTP,HOUSTON,TX,77020,2525 SSGT MACARIO GARCIA DR,HARRIS COUNTY,29.76,-95.30,221320,C,Other,"26,822.85","26,794.90",12.75,15.20,,,,,,,,,,"26,822.85",,,,,,,,,,,,,,,,,,,,,,,,,,,,,,,,,,,,,N,N,N
1000767,110019296527,74th Street,NEW YORK,NY,10021,506 E 75TH ST,New York,40.77,-73.95,221330,C,Power Plants,"148,328.41","147,822.80",149.50,356.11,,,,,,,,,,"148,328.41",,,,,,,,,,,,,,,,,,,,,,,,,,,,,,,,,,,,,N,N,N
1001033,110044891150,A B Brown Generating Station,MOUNT VERNON,IN,47620,8511 WELBORN ROAD,Posey,37.91,-87.72,221112,D,Power Plants,"2,538,211.82","2,518,044.50","7,379.25","12,788.07",,,,,,,,,,,"2,538,211.82",,,,,,,,,,,,,,,,,,,,,,,,,,,,,,,,,,,,N,N,N
1002342,110000341504,A&AT LLC WAYNESBORO FACILITY,WAYNESBORO,VA,22980,400 DU PONT BOULEVARD,WAYNESBORO CITY,38.06,-78.88,325222,C,Other,"83,301.07","82,671.30",230.75,399.02,,,,,,,,,,"83,301.07",,,,,,,,,,,,,,,,,,,,,,,,,,,,,,,,,,,,,N,N,N
1005445,110000395938,AAP ST MARYS CORP,SAINT MARYS,OH,45885,1100 MCKINLEY RD.,AUGLAIZE COUNTY,40.55,-84.37,336399,C,Other,"30,529.18","30,497.40",14.50,17.28,,,,,,,,,,"30,529.18",,,,,,,,,,,,,,,,,,,,,,,,,,,,,,,,,,,,,N,N,N
1006009,110017888393,ABB Inc.,Mt. Pleasant,PA,15666,100 Distribution Circle,WESTMORELAND COUNTY,40.18,-79.58,335313,SS,Other,114.00,,,,,,114.00,,,,,,,,,,,,,,,,,,,,,,,,,,,,,,,,,,,,,,,,,,114.00,,N,N,N
1002853,110017421226,ABBOTT NUTRITION,STURGIS,MI,49091,901 NORTH CENTERVILLE ROAD,ST. JOSEPH COUNTY,41.81,-85.43,311514,C,Other,"20,498.37","20,477.00",9.75,11.62,,,,,,,,,,"20,498.37",,,,,,,,,,,,,,,,,,,,,,,,,,,,,,,,,,,,,N,N,N
1002983,110018042562,ABBOTT PARK FACILITY,ABBOTT PARK,IL,60064,100 ABBOTT PARK RD,LAKE COUNTY,42.30,-87.89,325412,C,Chemicals,"58,630.79","58,550.40",34.50,45.89,,,,,,,,,,"58,630.79",,,,,,,,,,,,,,,,,,,,,,,,,,,,,,,,,,,,,N,N,N
1007514,110007806188,ABBVIE LTD.,BARCELONETA,PR,00617,RD 2 KM 58.0,BARCELONETA MUNICIPIO,18.43,-66.57,325411,C,Chemicals,"110,110.44","109,738.20",110.00,262.24,,,,,,,,,,"110,110.44",,,,,,,,,,,,,,,,,,,,,,,,,,,,,,,,,,,,,N,N,N
1004511,110000366817,ABC COKE,TARRANT,AL,35217,ONE RAILROAD AVENUE,JEFFERSON COUNTY,33.58,-86.78,331111,"C,Q",Metals,"214,858.50","214,657.00",52.50,149.00,,,,,,,,,,"198,522.20",,,,,,,,,,,,"16,336.30",,,,,,,,,,,,,,,,,,,,,,,,,N,N,N
1002047,110000428038,"ABE South Dakota, LLC - Aberdeen",Aberdeen,SD,57401,38469 133rd Street,BROWN,45.46,-98.55,325193,"C,II","Other,Waste","7,295.47","7,285.90",4.50,5.07,,,,,,,,,269.40,"7,294.97",,,,,,,,,,,,,,,,,,,,,,,,,,,,,,,,,,0.50,,,N,N,N
1002074,110024422622,"ABE South Dakota, LLC - Huron",HURON,SD,57350,694 W PARK AVE NW,BEADLE COUNTY,44.37,-98.25,325193,"C,II","Other,Waste","4,083.98","4,078.10",3.50,2.38,,,,,,,,,,"4,082.48",,,,,,,,,,,,,,,,,,,,,,,,,,,,,,,,,,1.50,,,N,N,N
1005278,110033218159,ABENGOA BIOENERGY CORPORATION COLWICH ETHANOL PLANT,COLWICH,KS,67030,523 E UNION AVE,SEDGWICK COUNTY,37.79,-97.53,325193,C,Other,0.00,0.00,,,,,,,,,,,,0.00,,,,,,,,,,,,,,,,,,,,,,,,,,,,,,,,,,,,,N,N,N
1005353,110038367228,ABERDEEN ENERGY LLC,MINA,SD,57451,13435 370TH AVENUE,EDMUNDS,45.44,-98.79,325193,C,Other,"172,174.55","171,997.00",81.00,96.55,,,,,,,,,,"172,174.55",,,,,,,,,,,,,,,,,,,,,,,,,,,,,,,,,,,,,N,N,N
1006971,110064337123,ABERDEEN PROVING GROUND-Aberdeen Area & Edgewood Area,APG,MD,21005,4304 Susquehanna Ave,HARFORD COUNTY,39.40,-76.31,928110,C,Other,"40,467.05","40,396.90",25.75,44.40,,,,,,,,,,"40,467.05",,,,,,,,,,,,,,,,,,,,,,,,,,,,,,,,,,,,,N,N,N
1003091,110034769043,ABRAHAM COMPRESSOR STATION,CANADIAN,TX,79014,9835 US HWY 60,HEMPHILL COUNTY,35.77,-100.48,211111,C,Petroleum and Natural Gas Systems,"23,083.16","23,059.60",10.75,12.81,,,,,,,,,,"23,083.16",,,,,,,,,,,,,,,,,,,,,,,,,,,,,,,,,,,,,N,N,N
1002627,110027236621,ABSOLUTE ENERGY LLC,ST ANSGAR (MONA),IA,50472,1372 STATELINE ROAD,MITCHELL COUNTY,43.50,-92.92,325193,"C,II","Other,Waste","172,951.43","172,441.40",410.50,99.53,,,,,,,,,779.40,"172,623.43",,,,,,,,,,,,,,,,,,,,,,,,,,,,,,,,,,328.00,,,N,N,N
1006529,110013921435,ACADIA PARISH POLICE JURY - ACADIA PARISH SANITARY LANDFILL,EGAN,LA,70531,611 PETAL RD,ACADIA PARISH,30.26,-92.53,562111,HH,Waste,"49,691.00",,"49,691.00",,,,,,,,,,,,,,,,,,,,,,,,,,,,,,,,,,,,,,,,,,,,"49,691.00",,,,N,N,N
1002685,110043804087,AC 857 A,Offshore,TX,00000,,,26.30,-94.90,211111,"C,W-OFFSH",Petroleum and Natural Gas Systems,"175,745.18","165,153.00","10,395.50",196.68,,,,,,,,,,"140,705.67",,,,,,,,,,,,,,,,,,35039.508,,,,,,,,,,,,,,,,,,,N,N,N
1004830,110000481924,ACE Cogeneration Company,Trona,CA,93562,12801 Mariposa Street,SAN BERNARDINO COUNTY,35.77,-117.38,221112,C,Power Plants,"581,742.80","575,909.00","2,138.00","3,695.80",,,,,,,,,,"581,742.80",,,,,,,,,,,,,,,,,,,,,,,,,,,,,,,,,,,,,N,N,N
1004761,110013812918,ACE ETHANOL LLC,STANLEY,WI,54768,815 WEST MAPLE STREET,CHIPPEWA,44.96,-90.96,325193,"C,PP","Other,Suppliers of CO2","71,600.98","71,527.00",33.75,40.23,,,,,,,,,,"71,600.98",,,,,,,,,,,,,,,,,,,,,,,,,,,,,,,,,,,,,N,N,N
1005601,110007180709,ACME BRICK CO ELGIN PLANT,ELGIN,TX,78621,1776 OLD MCDADE RD,BASTROP COUNTY,30.33,-97.29,327121,C,Minerals,"24,725.36","24,699.60",11.75,14.01,,,,,,,,,,"24,725.36",,,,,,,,,,,,,,,,,,,,,,,,,,,,,,,,,,,,,N,N,N
1005046,110007177722,ACME GYPSUM FACILITY,QUANAH,TX,79252,4164 HIGHWAY 285,HARDEMAN COUNTY,34.32,-99.82,327420,C,Minerals,"28,780.59","28,751.00",13.50,16.09,,,,,,,,,,"28,780.59",,,,,,,,,,,,,,,,,,,,,,,,,,,,,,,,,,,,,N,N,N
1002731,110061855381,ADA COGENERATION,ADA,MI,49355,7575 FULTON STREET EAST,KENT,42.96,-85.48,221112,C,Power Plants,"89,412.96","89,320.90",42.00,50.06,,,,,,,,,,"89,412.96",,,,,,,,,,,,,,,,,,,,,,,,,,,,,,,,,,,,,N,N,N
1003752,110040089604,"ADA Carbon Solutions (Red River), LLC",Coushatta,LA,71019,201 Red River Mine Road,RED RIVER PARISH,32.01,-93.39,325998,C,Chemicals,"126,979.98","126,975.00",2.00,2.98,,,,,,,,,,"126,979.98",,,,,,,,,,,,,,,,,,,,,,,,,,,,,,,,,,,,,N,N,N
1003422,110008978552,ADKINS ENERGY LLC,LENA,IL,61048,4350 WEST GALENA ROAD,STEPHENSON,42.36,-89.80,325193,"C,II","Other,Waste","65,913.00","65,773.30",102.75,36.95,,,,,,,,,,"65,841.25",,,,,,,,,,,,,,,,,,,,,,,,,,,,,,,,,,71.75,,,N,N,N
1002154,110013325507,ADM - MANKATO,MANKATO,MN,56001,2019 3RD AVENUE,BLUE EARTH COUNTY,44.19,-94.00,311225,C,Other,"96,361.56","95,934.10",160.75,266.71,,,,,,,,,,"96,361.56",,,,,,,,,,,,,,,,,,,,,,,,,,,,,,,,,,,,,N,N,N
1006047,110010507503,ADM CORN PROCESSING,CEDAR RAPIDS,IA,52404,1350 WACONIA AVENUE SOUTHWEST,LINN COUNTY,41.93,-91.69,311221,"C,II,PP","Other,Suppliers of CO2,Waste","3,233,301.06","3,210,886.50","9,266.50","13,148.06",,,,,,,,,"40,180.50","3,231,698.81",,,,,,,,,,,,,,,,,,,,,,,,,,,,,,,,,,"1,602.25",,,N,N,N
1006208,110000415630,ADM CORN PROCESSING,CLINTON,IA,52732,1251 BEAVER CHANNEL PARKWAY,CLINTON COUNTY,41.82,-90.21,311221,"C,TT","Other,Waste","2,010,290.49","1,994,876.70","6,070.00","9,343.79",,,,,,,,,"99,963.00","2,009,692.99",,,,,,,,,,,,,,,,,,,,,,,,,,,,,,,,,,,,597.50,N,N,N
1001867,110000595035,ADM CORN PROCESSING,WALHALLA,ND,58282,12868 COUNTY ROAD 9,PEMBINA,48.91,-97.89,325193,C,Other,"15,584.92","15,528.80",21.25,34.87,,,,,,,,,,"15,584.92",,,,,,,,,,,,,,,,,,,,,,,,,,,,,,,,,,,,,N,N,N
1010610,110033021888,ADM Deerfield,Deerfield,MO,64741,17700 South Highway T,VERNON,37.81,-94.59,311222,C,Other,"27,301.95","27,274.00",12.75,15.20,,,,,,,,,,"27,301.95",,,,,,,,,,,,,,,,,,,,,,,,,,,,,,,,,,,,,N,N,N
1000376,110040894761,ADM QUINCY,QUINCY,IL,62305,2100 GARDNER EXPRESSWAY,ADAMS COUNTY,39.90,-91.41,311222,C,Other,"164,391.43","163,508.90",328.25,554.28,,,,,,,,,,"164,391.43",,,,,,,,,,,,,,,,,,,,,,,,,,,,,,,,,,,,,N,N,N
1006080,110027360399,ADM SOUTHERN CELLULOSE PROD.IN,CHATTANOOGA,TN,37410,103 W 45TH ST,HAMILTON COUNTY,35.00,-85.32,322110,C,Pulp and Paper,"25,097.26","25,071.50",11.75,14.01,,,,,,,,,,"25,097.26",,,,,,,,,,,,,,,,,,,,,,,,,,,,,,,,,,,,,N,N,N
1000034,110067425799,ADM SOYBEAN PROCESSING - DES MOINES,DES MOINES,IA,50313,1935 EAST EUCLID AVENUE,POLK COUNTY,41.63,-93.58,311222,C,Other,"142,430.78","141,438.10",364.50,628.18,,,,,,,,,,"142,430.78",,,,,,,,,,,,,,,,,,,,,,,,,,,,,,,,,,,,,N,N,N
1001991,110001300020,ADRIAN LANDFILL,ADRIAN,MI,49221,1970 N OGDEN HWY,LENAWEE,41.89,-83.99,562212,"C,HH",Waste,"18,518.30",18.30,"18,500.00",,,,,,,,,,,18.30,,,,,,,,,,,,,,,,,,,,,,,,,,,,,,,,,"18,500.00",,,,N,N,N
1001633,110070081800,ADS-CEDAR HILL LANDFILL,RAGLAND,AL,35131,1319 NO BUSINESS CREEK ROAD,ST. CLAIR COUNTY,33.68,-86.25,562212,HH,Waste,"92,917.50",,"92,917.50",,,,,,,,,,,,,,,,,,,,,,,,,,,,,,,,,,,,,,,,,,,,"92,917.50",,,,N,N,N
1001636,110013947453,ADS-PECAN ROW-EVERGREEN LANDFILLS,VALDOSTA,GA,31601,2995 WETHERINGTON LANE,LOWNDES COUNTY,30.81,-83.36,562212,HH,Waste,"292,924.00",,"292,924.00",,,,,,,,,,,,,,,,,,,,,,,,,,,,,,,,,,,,,,,,,,,,"292,924.00",,,,N,N,N
1006790,110040628559,ADS-STAR RIDGE LANDFILL,MOODY,AL,35004,3301 ACMAR ROAD,SAINT CLAIR,33.61,-86.52,562212,HH,Waste,"60,150.00",,"60,150.00",,,,,,,,,,,,,,,,,,,,,,,,,,,,,,,,,,,,,,,,,,,,"60,150.00",,,,N,N,N
1002094,110034159005,ADS/MCLEAN COUNTY LANDFILL,BLOOMINGTON,IL,61704,2105 W OAKLAND AVE,MCLEAN,40.47,-89.03,562212,"C,HH",Waste,"38,172.10",4.60,"38,167.50",,,,,,,,,,,4.60,,,,,,,,,,,,,,,,,,,,,,,,,,,,,,,,,"38,167.50",,,,N,N,N
1001845,110043581317,ADVANCED DISPOSAL CRANBERRY CREEK LANDFILL LLC,WISCONSIN RAPIDS,WI,54495,2510 ENGEL ROAD,WOOD,44.41,-89.85,562212,"C,HH",Waste,"44,418.55",65.80,"44,352.75",,,,,,,,,,,65.80,,,,,,,,,,,,,,,,,,,,,,,,,,,,,,,,,"44,352.75",,,,N,N,N
1007212,110005509306,ADVANCED DISPOSAL EMERALD PARK LANDFILL LLC,MUSKEGO,WI,53132,W124 S10629 SOUTH 124TH STREET,WAUKESHA COUNTY,42.85,-88.08,562212,"C,HH",Waste,"69,104.80",15.30,"69,089.50",,,,,,,,,,,15.30,,,,,,,,,,,,,,,,,,,,,,,,,,,,,,,,,"69,089.50",,,,N,N,N
1007195,110040959558,ADVANCED DISPOSAL GLACIER RIDGE LANDFILL LLC,HORICON,WI,53032,N7296 HWY V,DODGE COUNTY,43.46,-88.55,562212,"C,HH",Waste,"48,801.63",40.80,"48,727.75",33.08,,,,,,,,,"9,214.00",88.13,,,,,,,,,,,,,,,,,,,,,,,,,,,,,,,,,"48,713.50",,,,N,N,N
1001847,110001929600,"ADVANCED DISPOSAL HICKORY MEADOWS LANDFILL, LLC",HILBERT,WI,54129,W3105 SCHNEIDER RD,CALUMET,44.11,-88.19,562212,"C,HH",Waste,"53,890.65",9.90,"53,880.75",,,,,,,,,,,9.90,,,,,,,,,,,,,,,,,,,,,,,,,,,,,,,,,"53,880.75",,,,N,N,N
1002038,110043795881,"ADVANCED DISPOSAL MALLARD RIDGE LANDFILL, INC",DELEVAN,WI,53115,W8470 STATE RD 11,WALWORTH,42.64,-88.72,562212,"C,HH",Waste,"66,795.56",24.20,"66,705.50",65.86,,,,,,,,,"18,299.00",118.06,,,,,,,,,,,,,,,,,,,,,,,,,,,,,,,,,"66,677.50",,,,N,N,N
1003038,110006726123,"ADVANCED DISPOSAL MAPLE HILL LANDFILL, LLC",MACON,MO,63552,31226 INTREPID ROAD,MACON COUNTY,39.73,-92.54,562212,"C,HH",Waste,"21,667.55",47.80,"21,619.75",,,,,,,,,,,47.80,,,,,,,,,,,,,,,,,,,,,,,,,,,,,,,,,"21,619.75",,,,N,N,N
1006979,110017987589,ADVANCED DISPOSAL OAK RIDGE LANDFILL,BALWIN,MO,63021,1741 SULPHUR SPRING ROAD,ST. LOUIS COUNTY,38.56,-90.53,562212,HH,Waste,"10,848.75",,"10,848.75",,,,,,,,,,,,,,,,,,,,,,,,,,,,,,,,,,,,,,,,,,,,"10,848.75",,,,N,N,N
1001637,110012142733,ADVANCED DISPOSAL ORCHARD HILLS LANDFILL INC,DAVIS JUNCTION,IL,61020,8290 HIGHWAY 251,OGLE,42.14,-89.09,562212,"C,HH",Waste,"138,458.40",68.40,"138,390.00",,,,,,,,,,,68.40,,,,,,,,,,,,,,,,,,,,,,,,,,,,,,,,,"138,390.00",,,,N,N,N
1001843,110008808264,ADVANCED DISPOSAL ROLLING HILLS LANDFILL INC,BUFFALO,MN,55313,175 COUNTY ROAD 37 NE,WRIGHT COUNTY,45.25,-93.87,562212,"C,HH",Waste,"10,355.35",9.60,"10,345.75",,,,,,,,,,,9.60,,,,,,,,,,,,,,,,,,,,,,,,,,,,,,,,,"10,345.75",,,,N,N,N
1006964,110016925274,ADVANCED DISPOSAL SEVEN MILE CREEK LANDFILL LLC,EAU CLAIRE,WI,54703,8001 OLSON DR,EAU CLAIRE,44.84,-91.37,562212,"C,HH",Waste,"50,850.60",13.10,"50,837.50",,,,,,,,,,,13.10,,,,,,,,,,,,,,,,,,,,,,,,,,,,,,,,,"50,837.50",,,,N,N,N
1006963,110018431320,ADVANCED DISPOSAL VALLEY VIEW LANDFILL INC,DECATUR,IL,62522,1363 BEAR RD,MACON COUNTY,39.82,-89.04,562212,"C,HH",Waste,"42,936.60",33.10,"42,903.50",,,,,,,,,,,33.10,,,,,,,,,,,,,,,,,,,,,,,,,,,,,,,,,"42,903.50",,,,N,N,N
1005985,110001121553,ADVANCED DISPOSAL ZION LANDFILL,ZION,IL,60099,701 GREEN BAY ROAD,LAKE,42.48,-87.87,562212,"C,HH",Waste,"69,451.40",65.90,"69,385.50",,,,,,,,,,,65.90,,,,,,,,,,,,,,,,,,,,,,,,,,,,,,,,,"69,385.50",,,,N,N,N
1000627,110000342460,ADVANSIX INC - CHESTERFIELD PLANT,CHESTER,VA,23836,4101 BERMUDA HUNDRED RD,CHESTERFIELD COUNTY,37.34,-77.29,325211,C,Other,"40,862.80","40,820.60",19.25,22.95,,,,,,,,,,"40,862.80",,,,,,,,,,,,,,,,,,,,,,,,,,,,,,,,,,,,,N,N,N
1000630,110000620221,ADVANSIX INCORPORATED - HOPEWELL,HOPEWELL,VA,23860,905 EAST RANDOLPH ROAD,HOPEWELL CITY,37.18,-77.16,325199,"C,G,PP","Chemicals,Suppliers of CO2","1,151,345.38","1,150,682.00",273.00,390.38,,,,,,,,,"23,750.00","502,156.38",,,,"649,189.00",,,,,,,,,,,,,,,,,,,,,,,,,,,,,,,,,N,Y,N
1005310,110012141805,AES - PUERTO RICO COGENERATION PLANT,GUAYAMA,PR,00785,"KM 142, RTE. #3 BO. JOBOS",GUAYAMA MUNICIPIO,17.95,-66.15,221112,C,Power Plants,"3,459,977.71","3,434,814.30","9,199.25","15,964.16",,,,,,,,,,"3,459,977.71",,,,,,,,,,,,,,,,,,,,,,,,,,,,,,,,,,,,,N,N,N
1001444,110000522113,AES Alamitos,LONG BEACH,CA,90803,690 N STUDEBAKER ROAD,Los Angeles,33.77,-118.10,221112,D,Power Plants,"949,253.84","948,291.00",439.25,523.59,,,,,,,,,,,"949,253.84",,,,,,,,,,,,,,,,,,,,,,,,,,,,,,,,,,,,N,N,N
1001222,110000329083,AES Beaver Valley LLC,MONACA,PA,15061,394 FRANKFORT RD,Beaver,40.66,-80.36,221112,D,Power Plants,"1,256,796.97","1,246,218.80","3,869.00","6,709.17",,,,,,,,,,,"1,256,796.97",,,,,,,,,,,,,,,,,,,,,,,,,,,,,,,,,,,,N,N,N
1000281,110000462785,"AES Deepwater, Inc.",PASADENA,TX,77506,701 LIGHT COMPANY ROAD,Harris,29.72,-95.23,221119,D,Power Plants,"81,640.38","81,012.20",229.75,398.43,,,,,,,,,,,"81,640.38",,,,,,,,,,,,,,,,,,,,,,,,,,,,,,,,,,,,N,N,N
1005972,110027164164,AES HAWAII INC,KAPOLEI,HI,96707,91-086 KAOMI LP,HONOLULU COUNTY,21.30,-158.11,221112,C,Power Plants,"1,824,245.53","1,812,718.80","4,215.00","7,311.73",,,,,,,,,,"1,824,245.53",,,,,,,,,,,,,,,,,,,,,,,,,,,,,,,,,,,,,N,N,N
1001447,110002921713,AES Huntington Beach,HUNTINGTON BEACH,CA,92646,21730 NEWLAND ST,Orange,33.64,-117.98,221112,D,Power Plants,"693,421.48","692,717.30",321.25,382.93,,,,,,,,,,,"693,421.48",,,,,,,,,,,,,,,,,,,,,,,,,,,,,,,,,,,,N,N,N
1001450,110014322170,AES Redondo Beach,REDONDO BEACH,CA,90277,1100 N HARBOR DRIVE,Los Angeles,33.85,-118.40,221112,"C,D",Power Plants,"409,497.13","409,081.20",189.75,226.18,,,,,,,,,,812.90,"408,684.24",,,,,,,,,,,,,,,,,,,,,,,,,,,,,,,,,,,,N,N,N
1007781,110056955460,"AES SHADY POINT, LLC",PANAMA,OK,74951,3 MILES E. OF JUNCTION 31,LE FLORE COUNTY,35.19,-94.65,221112,"C,PP","Power Plants,Suppliers of CO2","2,141,476.37","2,121,404.80","7,342.50","12,729.07",,,,,,,,,,"2,141,476.37",,,,,,,,,,,,,,,,,,,,,,,,,,,,,,,,,,,,,N,N,N
1001223,110000551055,AES Warrior Run,CUMBERLAND,MD,21502,11600 MEXICO FARMS RD SE,Allegany,39.59,-78.75,221112,"C,D,PP","Power Plants,Suppliers of CO2","1,408,065.39","1,396,775.50","4,129.25","7,160.64",,,,,,,,,,147.40,"1,407,917.99",,,,,,,,,,,,,,,,,,,,,,,,,,,,,,,,,,,,N,N,N
1003853,110000438884,AFTON CHEMICAL CORP,SAUGET,IL,62201,501 MONSANTO AVE.,ST. CLAIR COUNTY,38.60,-90.17,324191,C,Petroleum and Natural Gas Systems,"41,473.74","41,431.00",19.50,23.24,,,,,,,,,,"41,473.74",,,,,,,,,,,,,,,,,,,,,,,,,,,,,,,,,,,,,N,N,N
1007551,110007383919,AG Energy,Ogdensburg,NY,13669,21 Entrance Avenue,ST. LAWRENCE COUNTY,44.73,-75.44,221112,"C,D",Power Plants,"9,060.40","9,060.40",,,,,,,,,,,,"9,060.40",0.00,,,,,,,,,,,,,,,,,,,,,,,,,,,,,,,,,,,,N,N,N
1002070,110000414365,AG PROCESSING INC A COOP-MANNING,MANNING,IA,51455,1000 300TH STREET,CARROLL,41.92,-95.07,311222,C,Other,"26,736.40","26,709.00",12.50,14.90,,,,,,,,,,"26,736.40",,,,,,,,,,,,,,,,,,,,,,,,,,,,,,,,,,,,,N,N,N
1006054,110011273022,AG PROCESSING INC-EAGLE GROVE,EAGLE GROVE,IA,50533,500 NORTH COMMERCIAL AVENUE,WRIGHT COUNTY,42.67,-93.90,311222,C,Other,"159,888.51","158,678.90",443.75,765.86,,,,,,,,,,"159,888.51",,,,,,,,,,,,,,,,,,,,,,,,,,,,,,,,,,,,,N,N,N
1002291,110000427093,AG PROCESSING INCORPORATED A COOPERATIVE,DAWSON,MN,56232,800 DIAGONAL STREET,LAC QUI PARLE,44.93,-96.06,311222,C,Other,"22,220.12","22,197.70",10.50,11.92,,,,,,,,,,"22,220.12",,,,,,,,,,,,,,,,,,,,,,,,,,,,,,,,,,,,,N,N,N
1007333,110003253121,AGC FLAT GLASS N AMERICA INC,RICHMOND,KY,40475,201 DUNCANNON LANE,MADISON COUNTY,37.70,-84.27,327211,"C,N",Minerals,"132,033.00","131,896.00",62.50,74.50,,,,,,,,,,"66,016.50",,,,,,,,,"66,016.50",,,,,,,,,,,,,,,,,,,,,,,,,,,,N,N,N
1004631,110000445322,AGC FLAT GLASS NORTH AMERICA SPRING HILL PLANT,SPRING HILL,KS,66083,20400 NORTH WEBSTER STREET,JOHNSON,38.76,-94.83,327211,"C,N",Minerals,"96,834.38","96,760.40",33.75,40.23,,,,,,,,,,"71,636.68",,,,,,,,,"25,197.70",,,,,,,,,,,,,,,,,,,,,,,,,,,,N,N,N
1005824,110000546080,AGC-GREENLAND FLATGLASS PLANT,CHURCH HILL,TN,37642,600 AFG ROAD,HAWKINS COUNTY,36.50,-82.78,327211,"C,N",Minerals,"111,224.96","111,106.10",53.00,65.86,,,,,,,,,,"85,712.77",,,,,,,,,"25,512.19",,,,,,,,,,,,,,,,,,,,,,,,,,,,N,N,N
1002067,110000448472,AGP SOY/CORN PROCESSING,HASTINGS,NE,68901,2801 E 7TH ST,ADAMS COUNTY,40.59,-98.34,311222,"C,II","Other,Waste","243,054.91","239,873.30","2,460.75",720.86,,,,,,,,,,"241,020.41",,,,,,,,,,,,,,,,,,,,,,,,,,,,,,,,,,"2,034.50",,,N,N,N
1005284,110000427020,AGRI ENERGY LLC,LUVERNE,MN,56156,502 SOUTH WALNUT AVENUE,ROCK COUNTY,43.65,-96.22,325199,"C,II","Chemicals,Waste","20,053.27","19,959.20",82.75,11.32,,,,,,,,,,"19,980.02",,,,,,,,,,,,,,,,,,,,,,,,,,,,,,,,,,73.25,,,N,N,N
1006743,110056955521,AGRIFOS FERTILIZER PASADENA,PASADENA,TX,77506,2001 JACKSON ROAD,HARRIS COUNTY,29.74,-95.20,325311,"C,Z",Chemicals,"2,553.14","2,550.40",1.25,1.49,,,,,,,,,,"2,553.14",,,,,,,,,,,,,,,,,,,,,,,,,,0.00,,,,,,,,,,,N,N,N
1002380,110056955576,AGRIUM US BORGER NITROGEN OPERATIONS,BORGER,TX,79007,9201 FM 1551,HUTCHINSON COUNTY,35.64,-101.42,325311,"C,G,PP","Chemicals,Suppliers of CO2","986,925.66","986,476.00",197.25,252.41,,,,,,,,,,"418,717.66",,,,"568,208.00",,,,,,,,,,,,,,,,,,,,,,,,,,,,,,,,,Y,Y,N
1004236,110007030186,AGRIUM US INC - KFO,KENNEWICK,WA,99337,227515 E BOWLES ROAD,BENTON,46.17,-119.02,325311,"C,U,V",Chemicals,"146,925.60","7,758.50",0.50,"139,166.60",,,,,,,,,,"1,150.90",,,,,,,,,,,,,,,,"6,608.70","139,166.00",,,,,,,,,,,,,,,,,,,,N,N,N
1004374,110000355393,AGY LLC,AIKEN,SC,29801,2556 WAGENER RD.,AIKEN COUNTY,33.55,-81.67,327212,"C,N",Minerals,"12,802.46","12,792.60",4.50,5.36,,,,,,,,,,"9,608.16",,,,,,,,,"3,194.30",,,,,,,,,,,,,,,,,,,,,,,,,,,,N,N,N
1006430,110030747084,"AIR LIQUID LARGE INDUSTRIES US, LP",EL SEGUNDO,CA,90245,324 W EL SEGUNDO BLVD,LOS ANGELES,33.92,-118.42,325120,P,Chemicals,"586,790.80","586,790.80",,,,,,,,,,,,,,,,,,,,,,,"586,790.80",,,,,,,,,,,,,,,,,,,,,,,,,,N,N,N
1003724,110005191078,AIR LIQUIDE - CORPUS CHRISTI SMR,CORPUS CHRISTI,TX,78407,5880 UP RIVER ROAD,NUECES,27.81,-97.47,325120,P,Chemicals,"427,677.80","427,677.80",,,,,,,,,,,,,,,,,,,,,,,"427,677.80",,,,,,,,,,,,,,,,,,,,,,,,,,N,N,N
1003730,110005184497,AIR LIQUIDE - FREEPORT HYCO PLANT,FREEPORT,TX,77541,2398 VICTORIA ROAD,BRAZORIA COUNTY,28.98,-95.38,325120,"C,P",Chemicals,0.00,0.00,,,,,,,,,,,,0.00,,,,,,,,,,,0.00,,,,,,,,,,,,,,,,,,,,,,,,,,N,N,N
1003780,110014407846,AIR LIQUIDE - PORT NECHES ASU COGENERATION PLANT,PORT NECHES,TX,77651,2121 PARK STREET,JEFFERSON,29.98,-93.95,325120,C,Chemicals,"206,460.17","206,246.10",97.25,116.82,,,,,,,,,,"206,460.17",,,,,,,,,,,,,,,,,,,,,,,,,,,,,,,,,,,,,N,N,N
1003910,110056955610,AIR LIQUIDE AMERICA CORP,LONGVIEW,TX,75602,2292 Callahan Rd,HARRISON COUNTY,32.45,-94.69,325120,P,Chemicals,"386,848.00","386,848.00",,,,,,,,,,,,,,,,,,,,,,,"386,848.00",,,,,,,,,,,,,,,,,,,,,,,,,,N,N,N
1006115,110021175011,AIR LIQUIDE AMERICA CORP.,GEISMAR,LA,70734,36597 HWY 30,ASCENSION PARISH,30.21,-90.99,325120,C,Chemicals,"459,098.02","458,624.00",216.25,257.77,,,,,,,,,,"459,098.02",,,,,,,,,,,,,,,,,,,,,,,,,,,,,,,,,,,,,N,N,N
1003591,110021175011,AIR LIQUIDE GEISMAR UTILITY SERVICES,GEISMAR,LA,70734,36183 HWY 30,ASCENSION PARISH,30.21,-90.99,221330,C,Power Plants,"97,064.28","96,964.00",45.75,54.53,,,,,,,,,,"97,064.28",,,,,,,,,,,,,,,,,,,,,,,,,,,,,,,,,,,,,N,N,N
1003748,110041623641,AIR LIQUIDE LARGE INDUSTRIES US LP - RODEO HYDROGEN PLANT,RODEO,CA,94572,1391 SAN PABLO AVE,CONTRA COSTA COUNTY,38.05,-122.26,325120,P,Chemicals,"765,747.20","765,747.20",,,,,,,,,,,,,,,,,,,,,,,"765,747.20",,,,,,,,,,,,,,,,,,,,,,,,,,N,N,N
1003013,110017619861,AIR PRODUCTS & CHEMICAL INC - LAKE CHARLES FACILITY,WESTLAKE,LA,70669,102 TROUSDALE RD,CALCASIEU,30.24,-93.28,325120,P,Chemicals,"777,691.00","777,691.00",,,,,,,,,,,,,,,,,,,,,,,"777,691.00",,,,,,,,,,,,,,,,,,,,,,,,,,N,N,N
1002754,110022828813,AIR PRODUCTS & CHEMICALS INC - CONVENT SMR,CONVENT,LA,70723,10759 CONVENT WAY,ST. JAMES PARISH,30.11,-90.88,325120,P,Chemicals,"652,674.00","652,674.00",,,,,,,,,,,,,,,,,,,,,,,"652,674.00",,,,,,,,,,,,,,,,,,,,,,,,,,N,N,N
1002698,110006020304,AIR PRODUCTS & CHEMICALS INC - Geismar SMR,GEISMAR,LA,70734,8013 HWY 3251,ASCENSION PARISH,30.21,-90.99,325120,"P,PP","Chemicals,Suppliers of CO2","94,510.00","94,510.00",,,,,,,,,,,,,,,,,,,,,,,"94,510.00",,,,,,,,,,,,,,,,,,,,,,,,,,N,Y,N
1003009,110000449113,AIR PRODUCTS & CHEMICALS INC - INDUSTRIAL GAS PRODUCTION FACILITY,NEW ORLEANS,LA,70129,14700 INTRACOASTAL DRIVE,ORLEANS,30.03,-89.90,325120,"C,P,PP","Chemicals,Suppliers of CO2","227,751.29","227,748.00",1.50,1.79,,,,,,,,,,"3,065.29",,,,,,,,,,,"224,686.00",,,,,,,,,,,,,,,,,,,,,,,,,,N,Y,N
1002121,110000483227,AIR PRODUCTS & CHEMICALS INC MARTINEZ WATERFRONT ROAD,MARTINEZ,CA,94553,110 WATERFRONT RD,CONTRA COSTA COUNTY,38.03,-122.08,325120,P,Chemicals,"677,782.40","677,782.40",,,,,,,,,,,,,,,,,,,,,,,"677,782.40",,,,,,,,,,,,,,,,,,,,,,,,,,N,N,N
1002122,110070131948,"AIR PRODUCTS & CHEMICALS, INC, Tesoro Martinez",MARTINEZ,CA,94553,,CONTRA COSTA COUNTY,38.03,-122.07,325120,P,Chemicals,"217,135.44","217,119.00",7.50,8.94,,,,,,,,,,,,,,,,,,,,,"217,135.44",,,,,,,,,,,,,,,,,,,,,,,,,,N,N,N
1005809,110063668277,AIR PRODUCTS AND CHEMICALS INC - CATLETTSBURG HYDROGEN PLANT,CATLETTSBURG,KY,41129,11631 US Route 23 ,BOYD,38.38,-82.60,325120,P,Chemicals,"217,435.00","217,435.00",,,,,,,,,,,,,,,,,,,,,,,"217,435.00",,,,,,,,,,,,,,,,,,,,,,,,,,N,N,N
1002727,110033135328,AIR PRODUCTS AND CHEMICALS INC - GARYVILLE,GARYVILLE,LA,70051,4663 W AIRLINE HWY ,ST JOHN THE BAPTIST,30.10,-90.65,325120,P,Chemicals,"887,542.00","887,542.00",,,,,,,,,,,,,,,,,,,,,,,"887,542.00",,,,,,,,,,,,,,,,,,,,,,,,,,N,N,N
1002123,110000750358,AIR PRODUCTS AND CHEMICALS INCORPORATED,SACRAMENTO,CA,95826,5025 83RD STREET,SACRAMENTO,38.53,-121.40,325120,P,Chemicals,"47,584.40","47,584.40",,,,,,,,,,,,,,,,,,,,,,,"47,584.40",,,,,,,,,,,,,,,,,,,,,,,,,,N,N,N
1002430,110012710423,AIR PRODUCTS BAYTOWN PLANT,BAYTOWN,TX,77520,5503 WEST BAKER ROAD,HARRIS COUNTY,29.76,-95.02,325120,"C,P",Chemicals,"499,898.66","499,834.00",29.50,35.16,,,,,,,,,,"62,846.66",,,,,,,,,,,"437,052.00",,,,,,,,,,,,,,,,,,,,,,,,,,N,N,N
1002257,110002305443,AIR PRODUCTS CARSON HYDROGEN PLANT,CARSON,CA,90810,23300 SOUTH ALAMEDA STREET,LOS ANGELES,33.81,-118.23,325120,P,Chemicals,"703,550.10","703,550.10",,,,,,,,,,,,,,,,,,,,,,,"703,550.10",,,,,,,,,,,,,,,,,,,,,,,,,,N,N,N
1000341,110000484930,AIR PRODUCTS MANUFACTURING CORP STOCKTON COGEN,STOCKTON,CA,95206,1010 ZEPHYR ST.,SAN JOAQUIN COUNTY,37.91,-121.26,221112,C,Power Plants,"143,749.51","142,795.30",352.25,601.96,,,,,,,,,"3,487.60","143,749.51",,,,,,,,,,,,,,,,,,,,,,,,,,,,,,,,,,,,,N,N,N
1002435,110000476084,AIR PRODUCTS WILMINGTON HYDROGEN PLANT,WILMINGTON,CA,90744,700 HENRY FORD AVENUE,LOS ANGELES COUNTY,33.78,-118.24,325120,P,Chemicals,"603,018.40","603,018.40",,,,,,,,,,,,,,,,,,,,,,,"603,018.40",,,,,,,,,,,,,,,,,,,,,,,,,,N,N,N
1003418,110000384487,AK STEEL,ZANESVILLE,OH,43701,1724 LINDEN AVENUE,MUSKINGUM COUNTY,39.96,-82.00,331111,C,Metals,"23,158.02","23,135.10",11.00,11.92,,,,,,,,,,"23,158.02",,,,,,,,,,,,,,,,,,,,,,,,,,,,,,,,,,,,,N,N,N
1003417,110000384673,AK STEEL CORP *,COSHOCTON,OH,43812,17400 STATE ROUTE 16,COSHOCTON COUNTY,40.21,-81.89,331221,C,Metals,"48,759.62","48,709.80",23.00,26.82,,,,,,,,,,"48,759.62",,,,,,,,,,,,,,,,,,,,,,,,,,,,,,,,,,,,,N,N,N
1006530,110000391898,AK STEEL CORP MANSFIELD WORKS,MANSFIELD,OH,44903,913 BOWMAN STREET,RICHLAND COUNTY,40.79,-82.52,331111,"C,Q",Metals,"99,989.08","99,927.80",28.50,32.78,,,,,,,,,,"60,814.88",,,,,,,,,,,,"39,174.20",,,,,,,,,,,,,,,,,,,,,,,,,N,N,N
1002903,110038167113,AK STEEL CORP/BUTLER WORKS,BUTLER,PA,16003,1 ARMCO DR,BUTLER COUNTY,40.83,-79.94,331111,"C,Q",Metals,"277,601.39","277,380.00",101.00,120.39,,,,,,,,,,"214,224.39",,,,,,,,,,,,"63,377.00",,,,,,,,,,,,,,,,,,,,,,,,,N,N,N
1000214,110000592788,AK STEEL CORPORATION,ROCKPORT,IN,47635,6500 N US HIGHWAY 231,SPENCER COUNTY,37.98,-87.03,331111,C,Metals,"141,927.92","141,781.60",66.75,79.57,,,,,,,,,,"141,927.92",,,,,,,,,,,,,,,,,,,,,,,,,,,,,,,,,,,,,N,N,N
1003403,110060497001,AK STEEL DEARBORN WORKS,DEARBORN,MI,48120,4001 MILLER RD,WAYNE COUNTY,42.30,-83.16,331111,"C,Q",Metals,"1,496,832.59","1,496,352.00",174.25,306.34,,,,,,,,,,"1,134,872.59",,,,,,,,,,,,"361,960.00",,,,,,,,,,,,,,,,,,,,,,,,,N,N,N
1000274,110000392557,AK Steel Corporation - Middletown,MIDDLETOWN,OH,45043,1801 CRAWFORD STREET,Butler,39.50,-84.39,331111,"C,Q",Metals,"4,595,951.79","4,595,370.10",73.00,508.69,,,,,,,,,,"3,122,053.00",,,,,,,,,,,,"1,473,898.78",,,,,,,,,,,,,,,,,,,,,,,,,N,N,N
1005615,110043800553,AK Steel Corporation West Works,Ashland,KY,41101,170 Armco Road,BOYD COUNTY,38.50,-82.67,331111,"C,Q",Metals,"2,390,538.33","2,390,004.40",143.25,390.68,,,,,,,,,,"1,848,387.09",,,,,,,,,,,,"542,151.24",,,,,,,,,,,,,,,,,,,,,,,,,N,N,N
1006088,110006219733,AKRON REGIONAL LANDFILL *,AKRON,OH,44313,1585 HARDY ROAD,SUMMIT,41.15,-81.56,562212,HH,Waste,"4,465.38",,"4,465.38",,,,,,,,,,,,,,,,,,,,,,,,,,,,,,,,,,,,,,,,,,,,"4,465.38",,,,N,N,N
1007343,110000547196,AKZO NOBEL SURFACE CHEMISTRY LLC,MORRIS,IL,60450,8005 NORTH TABLER RD.,GRUNDY COUNTY,41.41,-88.34,325613,C,Chemicals,"49,476.62","49,413.60",28.75,34.27,,,,,,,,,"14,896.70","49,476.62",,,,,,,,,,,,,,,,,,,,,,,,,,,,,,,,,,,,,N,N,N
1003129,110033247172,AKER PLANT,STREETMAN,TX,75859,261 FCR 181,FREESTONE,31.91,-96.23,211111,"C,PP,W-PROC","Petroleum and Natural Gas Systems,Suppliers of CO2","63,647.75","62,970.70",647.25,29.80,,,,,,,,,,"50,434.46",,,,,,,,,,,,,,,,,,,13213.29,,,,,,,,,,,,,,,,,,N,N,N
1005149,110000594642,AL CORN CLEAN FUEL,CLAREMONT,MN,55924,797 5th Street,DODGE COUNTY,44.05,-93.02,325193,"C,II,PP","Other,Suppliers of CO2,Waste","74,912.42","74,808.90",61.50,42.02,,,,,,,,,,"74,886.17",,,,,,,,,,,,,,,,,,,,,,,,,,,,,,,,,,26.25,,,N,N,N
1000129,110012143304,AL Sandersville,WARTHEN,GA,31094,1600 MILLS LINDSEY SCHOOL ROAD,Washington,33.12,-82.86,221112,D,Power Plants,"20,800.02","20,779.20",9.50,11.32,,,,,,,,,,,"20,800.02",,,,,,,,,,,,,,,,,,,,,,,,,,,,,,,,,,,,N,N,N
1004823,110002442438,AL TURI LANDFILL & LFGTE FACILITY,GOSHEN,NY,10924,73 HARTLEY ROAD,ORANGE COUNTY,41.41,-74.37,562212,"C,HH",Waste,"20,300.95",73.40,"20,227.25",0.30,,,,,,,,,,73.70,,,,,,,,,,,,,,,,,,,,,,,,,,,,,,,,,"20,227.25",,,,N,N,N
1007917,110000589612,"ALABAMA RIVER CELLULOSE, LLC",PERDUE HILL,AL,36470,2373 LENA LANDEGGER HWY,MONROE COUNTY,31.58,-87.49,322110,"AA,C,TT","Pulp and Paper,Waste","351,220.78","127,185.00","185,851.25","38,184.53",,,,,,,,,"2,471,734.00","37,699.68",,,,,,,,,,,,,,,,,,,,,,,,,,,"147,685.35",,,,,,,,,"165,835.75",N,N,N
1007272,110000359068,ALADDIN MILLS - ANTIOCH RD PLA NT,DALTON,GA,30720,2001 ANTIOCH ROAD,WHITFIELD COUNTY,34.74,-84.95,314110,C,Other,"48,365.82","48,315.70",23.00,27.12,,,,,,,,,,"48,365.82",,,,,,,,,,,,,,,,,,,,,,,,,,,,,,,,,,,,,N,N,N
1006276,110037939737,ALBANY LANDFILL,ALBANY,NY,12205,525 RAPP RD,ALBANY COUNTY,42.70,-73.85,562212,HH,Waste,"84,452.25",,"84,452.25",,,,,,,,,,,,,,,,,,,,,,,,,,,,,,,,,,,,,,,,,,,,"84,452.25",,,,N,N,N
1004231,110070225668,ALBEMARLE CORP,ORANGEBURG,SC,29115,725 CANNON BRIDGE ROAD,ORANGEBURG COUNTY,33.47,-80.88,325199,"C,TT","Chemicals,Waste","53,755.36","31,192.70","22,541.50",21.16,,,,,,,,,,"31,229.61",,,,,,,,,,,,,,,,,,,,,,,,,,,,,,,,,,,,"22,525.75",N,N,N
1003402,110056955987,ALBEMARLE CORPORATION HOUSTON PLANT,PASADENA,TX,77503,2500 N. SOUTH ST.,HARRIS COUNTY,29.74,-95.17,325199,C,Chemicals,"75,390.22","75,314.00",34.50,41.72,,,,,,,,,,"75,390.22",,,,,,,,,,,,,,,,,,,,,,,,,,,,,,,,,,,,,N,N,N
1004307,110000743508,ALBEMARLE CORPORATION-SOUTH PLANT,MAGNOLIA,AR,71753,2270 HWY 79 SOUTH OF MAGNOLIA,COLUMBIA COUNTY,33.18,-93.22,325188,C,Chemicals,"73,685.67","73,609.50",34.75,41.42,,,,,,,,,,"73,685.67",,,,,,,,,,,,,,,,,,,,,,,,,,,,,,,,,,,,,N,N,N
1001877,110000602045,ALCOA INC - WARRICK OPERATIONS,NEWBURGH,IN,47629,,WARRICK COUNTY,37.92,-87.33,331312,"C,D,F","Metals,Power Plants","6,528,200.04","6,398,862.30","17,233.75","29,830.99",,"82,273.00",,,,,,,,"169,637.40","5,854,073.84",,"504,488.80",,,,,,,,,,,,,,,,,,,,,,,,,,,,,,,,,,N,N,N
1003562,110040947820,ALCOA INTALCO WORKS,FERNDALE,WA,98248,4050 MOUNTAIN VIEW RD.,WHATCOM COUNTY,48.85,-122.71,331312,"C,F,TT","Metals,Waste","1,146,835.20","412,832.00","11,814.00",29.80,,"722,159.40",,,,,,,,"61,398.80",,,"1,073,652.40",,,,,,,,,,,,,,,,,,,,,,,,,,,,,,,,,"11,784.00",N,N,N
1000635,110000491156,ALCOA WENATCHEE LLC,MALAGA,WA,98828,6200 MALAGA HIGHWAY,CHELAN COUNTY,47.36,-120.13,331312,"C,F",Metals,"306,332.64","269,093.00",14.25,16.99,,"37,208.40",,,,,,,,"30,491.24",,,"275,841.40",,,,,,,,,,,,,,,,,,,,,,,,,,,,,,,,,,N,N,N
1005887,110037924486,ALLIANCE COMPRESSOR STATION,JUSTIN,TX,76247,12495 HWY 114,DENTON,33.03,-97.35,211112,"C,W-PROC",Petroleum and Natural Gas Systems,"93,604.52","72,434.70","21,158.50",11.32,,,,,,,,,,"20,430.12",,,,,,,,,,,,,,,,,,,73174.4,,,,,,,,,,,,,,,,,,N,N,N
1003201,110000606997,ALCOA WORLD ALUMINA ATLANTIC,POINT COMFORT,TX,77978,,CALHOUN COUNTY,28.65,-96.56,331311,"C,TT","Metals,Waste","843,830.09","823,721.20","19,630.00",478.89,,,,,,,,,,"824,593.09",,,,,,,,,,,,,,,,,,,,,,,,,,,,,,,,,,,,"19,237.00",N,N,N
1003147,110034135264,ALCOA-MARYVILLE-BLOUNT COUNTY LANDFILL,Friendsville,TN,37737,240 Long Powers Road,BLOUNT COUNTY,35.74,-84.06,562212,HH,Waste,"40,473.50",,"40,473.50",,,,,,,,,,,,,,,,,,,,,,,,,,,,,,,,,,,,,,,,,,,,"40,473.50",,,,N,N,N
1006045,110058164187,ALERIS ROLLED PRODUCTS INC,LEWISPORT,KY,42351,1372 STATE ROAD 1957,HANCOCK COUNTY,37.95,-86.85,331314,C,Metals,"165,328.48","165,157.50",78.00,92.98,,,,,,,,,,"165,328.48",,,,,,,,,,,,,,,,,,,,,,,,,,,,,,,,,,,,,N,N,N
1004335,110043796942,ALL PURPOSE LANDFILL,SANTA CLARA,CA,95050,5401 Lafayette Street,SANTA CLARA COUNTY,37.41,-121.97,562212,HH,Waste,"53,496.25",,"53,496.25",,,,,,,,,,,,,,,,,,,,,,,,,,,,,,,,,,,,,,,,,,,,"53,496.25",,,,N,N,N
1005862,110000345010,ALLEGANY BALLISTICS LABORATORY,KEYSER,WV,26726,210 STATE ROUTE 956,MINERAL COUNTY,39.56,-78.84,336415,C,Other,"28,793.56","28,662.10",43.25,88.21,,,,,,,,,,"28,793.56",,,,,,,,,,,,,,,,,,,,,,,,,,,,,,,,,,,,,N,N,N
1005006,110042036597,"ALLEGHENY LUDLUM, BAGDAD FACILITY",LEECHBURG,PA,15656,585 SILICON DRIVE,WESTMORELAND COUNTY,40.64,-79.61,331111,C,Metals,"47,303.30","47,251.00",22.50,29.80,,,,,,,,,,"47,303.30",,,,,,,,,,,,,,,,,,,,,,,,,,,,,,,,,,,,,N,N,N
1007192,110007023023,ALLEN COUNTY PUBLIC WORKS,LA HARPE,KS,66751,1170 2800TH ST,ALLEN,38.01,-95.29,562212,"C,HH",Waste,"52,595.97",161.00,"52,408.75",26.22,,,,,,,,,"1,945.60",203.97,,,,,,,,,,,,,,,,,,,,,,,,,,,,,,,,,"52,392.00",,,,N,N,N
1007645,110001028290,ALLIANCE SANI LDFL,TAYLOR,PA,18517,398 KEYSER AVENUE,LACKAWANNA COUNTY,41.40,-75.74,562212,"C,HH",Waste,"57,909.33","1,243.96","56,664.68",0.70,,,,,,,,,,"1,245.24",,,,,,,,,,,,,,,,,,,,,,,,,,,,,,,,,"56,664.09",,,,N,N,N
1001970,110042063021,ALLIANT TECHSYSTEMS OPERATIONS LLC - LAKE CITY ARMY AMMUNITION PLANT,INDEPENDENCE,MO,64056,25201 East 78 Highway,JACKSON COUNTY,39.10,-94.28,332992,C,Other,"38,910.70","38,870.70",18.25,21.75,,,,,,,,,,"38,910.70",,,,,,,,,,,,,,,,,,,,,,,,,,,,,,,,,,,,,N,N,N
1007496,110043997137,ALLISON GAS PLANT,Allison,TX,79003,16298 Co. Rd. EE,WHEELER,35.62,-100.15,211111,"C,W-PROC",Petroleum and Natural Gas Systems,"38,461.41","35,876.90","2,564.25",20.26,,,,,,,,,,"35,912.66",,,,,,,,,,,,,,,,,,,2548.75,,,,,,,,,,,,,,,,,,N,N,N
1003246,110043997137,ALLISON COMPRESSOR STATION,Briscoe,TX,79011,16301 FM 1046,WHEELER,35.62,-100.15,211111,C,Petroleum and Natural Gas Systems,"29,365.54","29,335.40",13.75,16.39,,,,,,,,,,"29,365.54",,,,,,,,,,,,,,,,,,,,,,,,,,,,,,,,,,,,,N,N,N
1000048,110000396946,"ALLISON TRANSMISSION, Inc.",INDIANAPOLIS,IN,46222,One Allison Way,MARION,39.78,-86.24,336350,C,Other,"26,824.62","26,781.80",16.00,26.82,,,,,,,,,,"26,824.62",,,,,,,,,,,,,,,,,,,,,,,,,,,,,,,,,,,,,N,N,N
1004327,110000451467,ALMATIS INC - BAUXITE ARKANSAS,Benton,AR,72015,4701 ALCOA ROAD,SALINE COUNTY,34.58,-92.53,331311,C,Metals,"26,206.06","26,180.30",11.75,14.01,,,,,,,,,,"26,206.06",,,,,,,,,,,,,,,,,,,,,,,,,,,,,,,,,,,,,N,N,N
1005705,110008806612,ALLIANCE PIPELINE - OLIVIA 23-A,BIRD ISLAND,MN,55310,38884 870TH AVE,RENVILLE COUNTY,44.85,-94.90,486210,"C,W-NGTC",Petroleum and Natural Gas Systems,"84,721.98","84,501.60",173.00,47.38,,,,,,,,,,"84,588.53",,,,,,,,,,,,,,,,,,,,133.45,,,,,,,,,,,,,,,,,N,N,N
1007622,110041023807,ALON REFINING KROTZ SPRINGS INC,KROTZ SPRINGS,LA,70750,356 S. LEVEE RD,ST. LANDRY PARISH,30.53,-91.75,324110,"C,MM-REF,Y","Petroleum Product Suppliers,Refineries","533,875.78","528,167.10","3,180.75","2,527.93",,,,,,,,,,"306,035.66",,,,,,,,,,,,,,,,,,,,,,,,,"227,840.13",,,,,,,,,,,,N,N,N
1001559,110011273004,ALLIANCE PIPELINE L.P. - MANCHESTER,MANCHESTER,IA,52057,1242 220TH STREET,DELAWARE COUNTY,42.47,-91.55,486210,"C,W-NGTC",Petroleum and Natural Gas Systems,"76,060.52","75,353.20",665.00,42.32,,,,,,,,,,"75,430.32",,,,,,,,,,,,,,,,,,,,630.2,,,,,,,,,,,,,,,,,N,N,N
1007291,110043668563,ALPHA RIDGE LANDFILL,MARRIOTTSVILLE,MD,21104,2350 MARRIOTTSVILLE ROAD,HOWARD COUNTY,39.31,-76.90,562212,"C,HH",Waste,"36,548.40",73.80,"36,467.75",6.85,,,,,,,,,"1,801.60",83.40,,,,,,,,,,,,,,,,,,,,,,,,,,,,,,,,,"36,465.00",,,,N,N,N
1001560,110007054249,ALLIANCE PIPELINE LP,TAMPICO,IL,61283,580 TAMPICO RD,WHITESIDE,41.59,-89.78,486210,"C,W-NGTC",Petroleum and Natural Gas Systems,"54,771.84","54,598.40",142.75,30.69,,,,,,,,,,"54,654.74",,,,,,,,,,,,,,,,,,,,117.1,,,,,,,,,,,,,,,,,N,N,N
1004709,110039153028,ALTAMONT GAS PLANT,ALTAMONT,UT,84001,17790 WEST 3750 NORTH,DUCHESNE,40.36,-110.29,211112,"C,NN-FRAC,W-PROC","Natural Gas and Natural Gas Liquids Suppliers,Petroleum and Natural Gas Systems","42,741.60","41,481.70","1,237.25",22.65,,,,,,,,,,"34,156.17",,,,,,,,,,,,,,,,,,,8585.426,,,,,,,,,,,,,,,,,,N,N,N
1000245,110022357251,"ALLIANCE PIPELINE, L.P.-FAIRMOUNT COMPRESSOR STATION",FAIRMOUNT,ND,58030,17950 98TH ST SE,RICHLAND,45.99,-96.65,486210,"C,W-NGTC",Petroleum and Natural Gas Systems,"81,871.44","80,960.10",865.75,45.59,,,,,,,,,,"81,042.94",,,,,,,,,,,,,,,,,,,,828.5,,,,,,,,,,,,,,,,,N,N,N
1007401,110042073332,"ALTIVIA Petrochemicals, LLC - HAVERHILL COMPLEX",HAVERHILL,OH,45636,1019 HAVERHILL OHIO FURNACE ROAD,SCIOTO COUNTY,38.59,-82.82,325192,C,Chemicals,"28,250.84","28,221.80",13.25,15.79,,,,,,,,,,"28,250.84",,,,,,,,,,,,,,,,,,,,,,,,,,,,,,,,,,,,,N,N,N
1001558,110022357279,"ALLIANCE PIPELINE, L.P.-WIMBLEDON COMPRESSOR STATION",WIMBLEDON,ND,58492,1540 98TH AVE SE,BARNES,47.19,-98.43,486210,"C,W-NGTC",Petroleum and Natural Gas Systems,"91,421.51","91,079.50",290.75,51.26,,,,,,,,,,"91,173.46",,,,,,,,,,,,,,,,,,,,248.05,,,,,,,,,,,,,,,,,N,N,N
1003268,110000438679,ALTON STEEL COMPANY,ALTON,IL,62002,#5 CUT ST.,MADISON,38.88,-90.15,331111,"C,Q",Metals,"64,545.11","64,506.20",17.75,21.16,,,,,,,,,,"37,456.11",,,,,,,,,,,,"27,089.00",,,,,,,,,,,,,,,,,,,,,,,,,N,N,N
1005184,110041963266,ALYESKA PIPELINE SE/TAPS PUMP STATION 01,PRUDHOE BAY,AK,99734,,NORTH SLOPE,70.26,-148.62,486110,C,Other,"91,589.03","91,488.80",44.50,55.73,,,,,,,,,,"91,589.03",,,,,,,,,,,,,,,,,,,,,,,,,,,,,,,,,,,,,N,N,N
1005781,110064041834,"ALYESKA PIPELINE SERVICE COMPANY, Valdez Marine Terminal",VALDEZ,AK,99686,300 DAYVILLE ROAD,VALDEZ-CORDOVA CENSUS AREA,61.08,-146.39,486110,C,Other,"90,501.03","90,158.70",101.25,241.08,,,,,,,,,,"90,501.03",,,,,,,,,,,,,,,,,,,,,,,,,,,,,,,,,,,,,N,N,N
1005491,110069711869,"AM/NS Calvert, LLC",CALVERT,AL,36513,1 AM/NS Way,MOBILE COUNTY,31.15,-87.98,331111,C,Metals,"286,067.37","285,772.00",134.75,160.62,,,,,,,,,,"286,067.37",,,,,,,,,,,,,,,,,,,,,,,,,,,,,,,,,,,,,N,N,N
1005712,110000468388,AMALGAMATED SUGAR CO LLC,TWIN FALLS,ID,83301,2320 ORCHARD DR. E.,TWIN FALLS COUNTY,42.53,-114.43,311313,"C,S",Minerals,"296,307.61","294,411.40",698.25,"1,197.96",,,,,,,,,,"285,072.21",,,,,,,,,,,,,,"11,235.40",,,,,,,,,,,,,,,,,,,,,,,Y,N,N
1006412,110000468431,AMALGAMATED SUGAR CO LLC,PAUL,ID,83347,50 SOUTH 500 WEST,MINIDOKA,42.61,-113.76,311313,"C,S,TT","Minerals,Waste","294,606.20","281,239.00","12,428.50",938.70,,,,,,,,,,"255,355.20",,,,,,,,,,,,,,"27,271.00",,,,,,,,,,,,,,,,,,,,,,"11,980.00",Y,N,N
1005707,110000468609,AMALGAMATED SUGAR CO LLC,NAMPA,ID,83687,138 WEST KARCHER ROAD,CANYON COUNTY,43.61,-116.58,311313,"C,S,TT","Minerals,Waste","319,180.27","252,281.00","66,306.25",593.02,,,,,,,,,,"231,265.77",,,,,,,,,,,,,,"21,968.00",,,,,,,,,,,,,,,,,,,,,,"65,946.50",Y,N,N
1007178,110028032698,AMEA Sylacauga Plant,SYLACAUGA,AL,35150,125 THOMPSON LANE,Talladega,33.17,-86.28,221112,D,Power Plants,"4,299.58","4,295.20",2.00,2.38,,,,,,,,,,,"4,299.58",,,,,,,,,,,,,,,,,,,,,,,,,,,,,,,,,,,,N,N,N
1004732,110012703271,AMERICAN ACRYL PASADENA,PASADENA,TX,77507,"4631 Old Hwy 146, Suite B",HARRIS,29.62,-95.07,325199,C,Chemicals,"62,250.92","62,186.80",29.25,34.87,,,,,,,,,,"62,250.92",,,,,,,,,,,,,,,,,,,,,,,,,,,,,,,,,,,,,N,N,N
1005432,110010495384,AMERICAN AIRLINES,TULSA,OK,74116,3800 NORTH MINGO ROAD,TULSA,36.20,-95.87,481111,C,Other,"42,154.82","42,097.80",22.75,34.27,,,,,,,,,,"42,154.82",,,,,,,,,,,,,,,,,,,,,,,,,,,,,,,,,,,,,N,N,N
1004417,110013667488,AMERICAN AVENUE LANDFILL,KERMAN,CA,93630,18950 W AMERICAN AVENUE,FRESNO COUNTY,36.67,-120.14,562212,"C,HH",Waste,"87,070.80",20.80,"87,050.00",,,,,,,,,,,20.80,,,,,,,,,,,,,,,,,,,,,,,,,,,,,,,,,"87,050.00",,,,N,N,N
1005327,110000366611,AMERICAN CAST IRON PIPE CO,BIRMINGHAM,AL,35207,2930 NORTH 16TH STREET,JEFFERSON COUNTY,33.55,-86.83,331511,C,Metals,"115,849.75","115,326.30",196.25,327.20,,,,,,,,,,"115,849.75",,,,,,,,,,,,,,,,,,,,,,,,,,,,,,,,,,,,,N,N,N
1008041,110054631225,AMERICAN COLLOID,BELLE FOURCHE,SD,57717,692 US HIGHWAY 212,BUTTE,44.68,-103.86,212325,C,Other,"70,581.55","70,144.10",161.50,275.95,,,,,,,,,,"70,581.55",,,,,,,,,,,,,,,,,,,,,,,,,,,,,,,,,,,,,N,N,N
1006354,110000594919,AMERICAN CRYSTAL SUGAR - CROOKSTON,CROOKSTON,MN,56716,1201 Hwy 75 South,POLK,47.76,-96.63,311313,"C,S,TT","Minerals,Waste","305,108.52","220,279.90","83,952.50",876.12,,,,,,,,,,"205,516.42",,,,,,,,,,,,,,"16,157.10",,,,,,,,,,,,,,,,,,,,,,"83,435.00",Y,N,N
1005751,110007602095,AMERICAN CRYSTAL SUGAR - E GRAND FORKS,EAST GRAND FORKS,MN,56721,1020 Business Hwy 2,POLK COUNTY,47.93,-97.01,311313,"C,S,TT","Minerals,Waste","593,082.56","461,249.00","130,017.25","1,816.31",,,,,,,,,73.30,"405,341.86",,,,,,,,,,,,,,"58,773.70",,,,,,,,,,,,,,,,,,,,,,"128,967.00",Y,N,N
1005753,110056190704,AMERICAN CRYSTAL SUGAR - HILLSBORO,HILLSBORO,ND,58045,121 Highway 81 NE,TRAILL,47.44,-97.06,311313,"C,S,TT","Minerals,Waste","443,897.40","355,338.60","86,964.50","1,594.30",,,,,,,,,"8,370.80","321,197.90",,,,,,,,,,,,,,"36,647.50",,,,,,,,,,,,,,,,,,,,,,"86,052.00",Y,N,N
1006877,110000427440,AMERICAN CRYSTAL SUGAR - MOORHEAD,MOORHEAD,MN,56560,2500 NORTH 11TH STREET,CLAY,46.90,-96.76,311313,"C,S,TT","Minerals,Waste","321,415.70","210,459.80","110,121.50",834.40,,,,,,,,,"2,204.10","191,608.85",,,,,,,,,,,,,,"20,159.10",,,,,,,,,,,,,,,,,,,,,,"109,647.75",Y,N,N
1002552,110039017391,AMERICAN ENVIRONMENTAL LANDFILL,SAND SPRINGS,OK,74063,212 N. 177TH W. AVENUE,OSAGE COUNTY,36.16,-96.19,562212,"C,HH",Waste,"107,678.65",2.90,"107,675.75",,,,,,,,,,,2.90,,,,,,,,,,,,,,,,,,,,,,,,,,,,,,,,,"107,675.75",,,,N,N,N
1007095,110000883615,AMERICAN FUJI SEAL INC,BARDSTOWN,KY,40004,1051 BLOOMFIELD RD,NELSON COUNTY,37.82,-85.43,323111,C,Pulp and Paper,44.60,44.60,,,,,,,,,,,,44.60,,,,,,,,,,,,,,,,,,,,,,,,,,,,,,,,,,,,,N,N,N
1000007,110007014774,AMERICAN GYPSUM - BERNALILLO (WALLBOARD) PLANT,BERNALILLO,NM,87004,1000 N HILL RD,SANDOVAL,35.33,-106.53,327420,C,Minerals,0.00,0.00,,,,,,,,,,,,0.00,,,,,,,,,,,,,,,,,,,,,,,,,,,,,,,,,,,,,N,N,N
1005175,110007385551,AMERICAN GYPSUM CO /GYPSUM WALLBOARD PLT,DUKE,OK,73532,0.25 MILES W OF,JACKSON COUNTY,34.65,-99.59,327420,C,Minerals,"55,932.84","55,875.30",26.25,31.29,,,,,,,,,,"55,932.84",,,,,,,,,,,,,,,,,,,,,,,,,,,,,,,,,,,,,N,N,N
1004845,110001556138,AMERICAN GYPSUM COMPANY,ALBUQUERQUE,NM,87113,4600 Paseo Del Norte NE,BERNALILLO COUNTY,35.17,-106.59,327420,C,Minerals,"35,281.17","35,245.00",16.50,19.67,,,,,,,,,,"35,281.17",,,,,,,,,,,,,,,,,,,,,,,,,,,,,,,,,,,,,N,N,N
1007404,110007351025,AMERICAN GYPSUM COMPANY,GYPSUM,CO,81637,740 Highway #6,EAGLE,39.66,-106.96,327420,C,Minerals,"46,782.22","46,733.00",23.00,26.22,,,,,,,,,,"46,782.22",,,,,,,,,,,,,,,,,,,,,,,,,,,,,,,,,,,,,N,N,N
1005590,110000332220,AMERICAN REFINING GROUP INC,BRADFORD,PA,16701,77 NORTH KENDALL AVENUE,MCKEAN COUNTY,41.97,-78.63,324110,"C,MM-REF,Y","Petroleum Product Suppliers,Refineries","168,483.04","166,728.90","1,120.00",634.14,,,,,,,,,,"160,414.05",,,,,,,,,,,,,,,,,,,,,,,,,"8,069.00",,,,,,,,,,,,N,N,N
1001860,110009575762,AMERICAN SUGAR REFINING INC - Chalmette Refinery,ARABI,LA,70032,7417 N PETERS ST,ST. BERNARD PARISH,29.95,-90.00,311312,C,Other,"115,813.56","115,694.10",54.50,64.96,,,,,,,,,,"115,813.56",,,,,,,,,,,,,,,,,,,,,,,,,,,,,,,,,,,,,N,N,N
1006919,110000378546,AMERICAN SYNTHETIC RUBBER,LOUISVILLE,KY,40216,4500 CAMPGROUND ROAD,JEFFERSON COUNTY,38.21,-85.85,325212,C,Other,"257,721.19","255,985.30",639.25,"1,096.64",,,,,,,,,,"257,721.19",,,,,,,,,,,,,,,,,,,,,,,,,,,,,,,,,,,,,N,N,N
1001962,110056954602,AMERICAS STYRENICS LLC - ST JAMES PLANT,ST. JAMES,LA,70086,9901 HWY 18,ST. JAMES PARISH,30.08,-90.92,325110,C,Chemicals,"702,868.24","702,578.90",132.00,157.34,,,,,,,,,,"702,868.24",,,,,,,,,,,,,,,,,,,,,,,,,,,,,,,,,,,,,N,N,N
1005413,110000476789,AMGEN INC,THOUSAND OAKS,CA,91320,1 AMGEN CENTER DRIVE M/S 25-1-A,VENTURA COUNTY,34.19,-118.92,325414,C,Chemicals,"23,212.11","23,188.00",11.00,13.11,,,,,,,,,,"23,212.11",,,,,,,,,,,,,,,,,,,,,,,,,,,,,,,,,,,,,N,N,N
1005072,110020514843,"AMGEN MANUFACTURING, LIMITED",JUNCOS,PR,00777,RD 31 KM 24.6,JUNCOS,18.24,-65.90,325412,C,Chemicals,"27,348.26","27,254.40",28.00,65.86,,,,,,,,,,"27,348.26",,,,,,,,,,,,,,,,,,,,,,,,,,,,,,,,,,,,,N,N,N
1008730,110043799538,AMP Fremont Energy Center,Fremont,OH,43420,1275 Miarer Rd,SANDUSKY COUNTY,41.38,-83.16,221112,D,Power Plants,"1,347,176.60","1,345,861.40",600.00,715.20,,,,,,,,,,,"1,347,176.60",,,,,,,,,,,,,,,,,,,,,,,,,,,,,,,,,,,,N,N,N
1000208,110013813150,AMP-Ohio Gas Turbines Bowling Green,Bowling Green,OH,43402,1225 North College Drive,WOOD COUNTY,41.40,-83.64,221112,"C,D",Power Plants,"1,574.55","1,573.20",0.75,0.60,,,,,,,,,,368.65,"1,205.90",,,,,,,,,,,,,,,,,,,,,,,,,,,,,,,,,,,,N,N,N
1006506,110012512520,AMP-Ohio Gas Turbines Galion,Galion,OH,44833,900 South Street,CRAWFORD,40.72,-82.79,221112,"C,D",Power Plants,"1,833.55","1,832.20",0.75,0.60,,,,,,,,,,700.25,"1,133.30",,,,,,,,,,,,,,,,,,,,,,,,,,,,,,,,,,,,N,N,N
1001344,110006233726,AMP-Ohio Gas Turbines Napoleon,Napoleon,OH,43545,1775 Industrial Drive,HENRY COUNTY,41.41,-84.11,221112,"C,D",Power Plants,"1,768.85","1,767.50",0.75,0.60,,,,,,,,,,755.45,"1,013.40",,,,,,,,,,,,,,,,,,,,,,,,,,,,,,,,,,,,N,N,N
1004746,110000490763,ANALOG DEVICES,CAMAS,WA,98607,4200 NW PACIFIC RIM BLVD,CLARK COUNTY,45.60,-122.45,334413,"C,I",Other,"18,086.12","1,786.60",0.75,"1,390.77",643.80,"12,954.21","1,285.92",24.08,,,,,,"1,788.24",,,,,,"16,297.88",,,,,,,,,,,,,,,,,,,,,,,,,,,,,,,N,N,N
1006810,110004841627,ANCHOR ACQUISITION LLC MONACA PLT,MONACA,PA,15061,400 9TH STREET,BEAVER COUNTY,40.69,-80.28,327212,"C,N",Minerals,"39,116.35","39,088.40",12.75,15.20,,,,,,,,,,"27,581.75",,,,,,,,,"11,534.60",,,,,,,,,,,,,,,,,,,,,,,,,,,,N,N,N
1004508,110000382005,ANCHOR HOCKING GLASS CO PLANT NO 1 *,LANCASTER,OH,43130,1115 WEST FIFTH AVENUE,FAIRFIELD COUNTY,39.72,-82.62,327212,"C,N",Minerals,"136,866.66","136,746.10",55.00,65.56,,,,,,,,,,"116,477.96",,,,,,,,,"20,388.70",,,,,,,,,,,,,,,,,,,,,,,,,,,,N,N,N
1007341,110034176692,ANCHORAGE REGIONAL LANDFILL,EAGLE RIVER,AK,99577,15500 E. EAGLE RIVER LOOP RD,ANCHORAGE MUNICIPALITY,61.29,-149.60,562212,"C,HH",Waste,"342,506.30",318.80,"342,187.50",,,,,,,,,,,318.80,,,,,,,,,,,,,,,,,,,,,,,,,,,,,,,,,"342,187.50",,,,N,N,N
1002416,110043795701,ANDECTOR BOOSTER STATION,GOLDSMITH,TX,79741,,ECTOR,32.04,-102.68,211111,C,Petroleum and Natural Gas Systems,"32,395.56","32,362.13",15.25,18.18,,,,,,,,,,"32,395.56",,,,,,,,,,,,,,,,,,,,,,,,,,,,,,,,,,,,,N,N,N
1004275,110000568154,ANDERSON DEVELOPMENT COMPANY,ADRIAN,MI,49221,525 GULF STREET,LENAWEE,41.89,-84.02,325120,"C,L,OO","Chemicals,Industrial Gas Suppliers","96,560.30",824.00,0.50,0.60,,,,"95,735.20",,,,,,825.10,,,,,,,,"95,735.20",,,,,,,,,,,,,,,,,,,,,,,,,,,,,N,N,N
1007839,110002690730,ANDERSON LANDFILL,ANDERSON,CA,96007,18703 CAMBRIDGE ROAD,SHASTA COUNTY,40.42,-122.36,562212,HH,Waste,"39,231.58",,"39,231.58",,,,,,,,,,,,,,,,,,,,,,,,,,,,,,,,,,,,,,,,,,,,"39,231.58",,,,N,N,N
1007933,110001843694,ANDERSONS ALBION ETHANOL LLC,ALBION,MI,49224,26250 B DR N,CALHOUN COUNTY,42.26,-84.79,325193,"C,II,PP","Other,Suppliers of CO2,Waste","99,648.93","99,507.30",86.50,55.13,,,,,,,,,422.50,"99,610.18",,,,,,,,,,,,,,,,,,,,,,,,,,,,,,,,,,38.75,,,N,N,N
1005969,110030736693,ANDERSONS CLYMERS ETHANOL LLC,LOGANSPORT,IN,46947,3389 WEST CR 300 SOUTH,CASS COUNTY,40.72,-86.44,325193,"C,II","Other,Waste","184,025.45","183,515.50",390.75,119.20,,,,,,,,,849.20,"183,721.45",,,,,,,,,,,,,,,,,,,,,,,,,,,,,,,,,,304.00,,,N,N,N
1007565,110025317146,ANDERSONS DENISON ETHANOL LLC,DENISON,IA,51442,2404 W HWY 30,CRAWFORD COUNTY,41.99,-95.40,325193,"C,II","Other,Waste","77,497.57","77,280.30",167.50,49.77,,,,,,,,,277.00,"77,366.57",,,,,,,,,,,,,,,,,,,,,,,,,,,,,,,,,,131.00,,,N,N,N
1000035,110037615694,ANDERSONS MARATHON ETHANOL LLC,GREENVILLE,OH,45331,5728 E SEBRING WARNER RD,DARKE,40.08,-84.59,325193,"C,II,PP","Other,Suppliers of CO2,Waste","174,206.54","173,898.20",306.25,2.09,,,,,,,,,582.20,"173,983.29",,,,,,,,,,,,,,,,,,,,,,,,,,,,,,,,,,223.25,,,N,N,N
1005392,110030746959,ANGELINA COUNTY WASTE MANAGEMENT CENTER,LUFKIN,TX,75901,7521 FM 58,ANGELINA COUNTY,31.25,-94.70,562212,HH,Waste,"15,865.50",,"15,865.50",,,,,,,,,,,,,,,,,,,,,,,,,,,,,,,,,,,,,,,,,,,,"15,865.50",,,,N,N,N
1002263,110000450477,ANGUS CHEMICAL CO,STERLINGTON,LA,71280,350 LOUISIANA HIGHWAY 2,OUACHITA PARISH,32.69,-92.08,325199,"C,V",Chemicals,"94,617.46","78,922.10",37.25,"15,658.11",,,,,,,,,,"79,003.75",,,,,,,,,,,,,,,,,"15,613.71",,,,,,,,,,,,,,,,,,,,N,N,N
1002576,110000325096,ANHEUSER BUSCH BALDWINSVILLE BREWERY,BALDWINSVILLE,NY,13027,2885 BELGIUM ROAD,ONONDAGA COUNTY,43.17,-76.31,312120,"C,PP","Other,Suppliers of CO2","28,831.21","28,751.80",28.75,50.66,,,,,,,,,"9,973.40","28,831.21",,,,,,,,,,,,,,,,,,,,,,,,,,,,,,,,,,,,,N,N,N
1006111,110000382773,ANHEUSER BUSCH INC,COLUMBUS,OH,43229,700 SCHROCK ROAD,FRANKLIN COUNTY,40.10,-82.99,312120,"C,PP","Other,Suppliers of CO2","42,526.50","42,452.80",29.00,44.70,,,,,,,,,"5,701.10","42,526.50",,,,,,,,,,,,,,,,,,,,,,,,,,,,,,,,,,,,,N,N,N
1002867,110017431322,ANHEUSER BUSCH INC. - L.A. BREWERY,VAN NUYS,CA,91406,15800 ROSCOE BOULEVARD,LOS ANGELES COUNTY,34.22,-118.48,312120,"C,PP","Other,Suppliers of CO2","46,837.68","46,759.00",31.00,47.68,,,,,,,,,"5,883.40","46,837.68",,,,,,,,,,,,,,,,,,,,,,,,,,,,,,,,,,,,,N,N,N
1003352,110057414070,ANHEUSER BUSCH INCORPORATED FORT COLLINS BREWERY,FORT COLLINS,CO,80524,2351 BUSCH DRIVE,LARIMER,40.62,-105.01,312120,"C,PP","Other,Suppliers of CO2","54,166.14","54,109.40",25.75,30.99,,,,,,,,,,"54,166.14",,,,,,,,,,,,,,,,,,,,,,,,,,,,,,,,,,,,,N,N,N
1002734,110000482825,ANHEUSER BUSCH LLC,FAIRFIELD,CA,94534,3101 BUSCH DRIVE,SOLANO COUNTY,38.24,-122.09,312120,C,Other,"14,602.29","14,575.70",10.50,16.09,,,,,,,,,"2,263.70","14,602.29",,,,,,,,,,,,,,,,,,,,,,,,,,,,,,,,,,,,,N,N,N
1003176,110000341684,ANHEUSER BUSCH LLC,WILLIAMSBURG,VA,23185,7801 POCAHONTAS TRAIL,JAMES CITY COUNTY,37.24,-76.65,312120,C,Other,"48,433.07","48,383.20",22.75,27.12,,,,,,,,,,"48,433.07",,,,,,,,,,,,,,,,,,,,,,,,,,,,,,,,,,,,,N,N,N
1003224,110000461401,ANHEUSER-BUSCH HOUSTON BREWERY,HOUSTON,TX,77029,775 GELLHORN DRIVE,HARRIS COUNTY,29.77,-95.27,312120,C,Other,"16,254.84","15,876.60",116.00,262.24,,,,,,,,,"70,865.20","16,254.84",,,,,,,,,,,,,,,,,,,,,,,,,,,,,,,,,,,,,N,N,N
1006147,110000362036,ANHEUSER-BUSCH LLC,JACKSONVILLE,FL,32218,111 BUSCH DR.,DUVAL COUNTY,30.43,-81.65,312120,C,Other,"59,090.37","58,996.00",37.75,56.62,,,,,,,,,"6,484.10","59,090.37",,,,,,,,,,,,,,,,,,,,,,,,,,,,,,,,,,,,,N,N,N
1002915,110040981195,ANHEUSER-BUSCH LLC,MERRIMACK,NH,03054,221 DANIEL WEBSTER HIGHWAY,HILLSBOROUGH,42.82,-71.49,312120,"C,PP","Other,Suppliers of CO2","18,221.46","18,187.90",13.00,20.56,,,,,,,,,"2,699.00","18,221.46",,,,,,,,,,,,,,,,,,,,,,,,,,,,,,,,,,,,,N,N,N
1006904,110000356427,"ANHEUSER-BUSCH, INC. CARTERSVI LLE BREWERY",CARTERSVILLE,GA,30120,100 BUSCH DR.,BARTOW COUNTY,34.26,-84.78,312120,C,Other,"32,203.23","32,148.70",21.75,32.78,,,,,,,,,"4,236.50","32,203.23",,,,,,,,,,,,,,,,,,,,,,,,,,,,,,,,,,,,,N,N,N
1003525,110000581816,"ANHEUSER-BUSCH, INC. NEWARK BREWERY",NEWARK,NJ,07114,200 US HIGHWAY ONE,ESSEX COUNTY,40.70,-74.19,312120,"C,PP","Other,Suppliers of CO2","38,835.70","38,783.40",22.50,29.80,,,,,,,,,"2,702.50","38,835.70",,,,,,,,,,,,,,,,,,,,,,,,,,,,,,,,,,,,,N,N,N
1005490,110001547675,ANIMAS POWER PLANT,FARMINGTON,NM,87401,501 MCCORMICK SCHOOL ROAD,SAN JUAN COUNTY,36.72,-108.19,221112,C,Power Plants,"54,177.00","54,121.10",25.50,30.40,,,,,,,,,,"54,177.00",,,,,,,,,,,,,,,,,,,,,,,,,,,,,,,,,,,,,N,N,N
1006178,110043808136,ANN ARBOR SLF PHASE I & II,ANN ARBOR,MI,48108,4150 PLATT RD,WASHTENAW COUNTY,42.23,-83.70,562212,HH,Waste,"36,172.25",,"36,172.25",,,,,,,,,,,,,,,,,,,,,,,,,,,,,,,,,,,,,,,,,,,,"36,172.25",,,,N,N,N
1006864,110024360458,"ANP Bellingham Energy Company, LLC",BELLINGHAM,MA,02019,155 MAPLE ST,Norfolk,42.11,-71.45,221112,"C,D",Power Plants,"725,030.91","724,294.40",336.00,400.51,,,,,,,,,,"1,064.00","723,966.92",,,,,,,,,,,,,,,,,,,,,,,,,,,,,,,,,,,,N,N,N
1006657,110017410425,"ANP Blackstone Energy Company, LLC",BLACKSTONE,MA,01504,204 ELM ST,Worcester,42.06,-71.52,221112,"C,D",Power Plants,"802,969.52","802,154.10",372.00,443.42,,,,,,,,,,7.60,"802,961.92",,,,,,,,,,,,,,,,,,,,,,,,,,,,,,,,,,,,N,N,N
1004929,110003153729,ANR Pipeline Alden CS,ALDEN,KS,67512,2135 11th Road,RICE,38.21,-98.29,486210,"C,W-NGTC",Petroleum and Natural Gas Systems,"50,934.93","32,470.50","18,446.25",18.18,,,,,,,,,,"32,489.63",,,,,,,,,,,,,,,,,,,,18445.3,,,,,,,,,,,,,,,,,N,N,N
1004926,110043797914,ANR Pipeline Birmingham CS,BIRMINGHAM,IA,52535,2795 LOCUST AVE,VAN BUREN,40.90,-91.97,486210,"C,W-NGTC",Petroleum and Natural Gas Systems,"59,990.10","39,383.20","20,584.25",22.65,,,,,,,,,,"39,408.15",,,,,,,,,,,,,,,,,,,,20581.95,,,,,,,,,,,,,,,,,N,N,N
1004928,110022883003,ANR Pipeline Bridgman CS,BRIDGMAN,MI,49106,3372 BROWNTOWN RD,BERRIEN COUNTY,41.90,-86.53,486210,"C,W-NGTC",Petroleum and Natural Gas Systems,"54,115.31","38,096.10","15,997.75",21.46,,,,,,,,,,"38,114.26",,,,,,,,,,,,,,,,,,,,16001.05,,,,,,,,,,,,,,,,,N,N,N
1005235,110001994272,ANR Pipeline Brownsville CS,Brownsville,TN,38012,70 Pumping Station Road,HAYWOOD,35.45,-89.29,486210,"C,W-NGTC",Petroleum and Natural Gas Systems,"68,155.11","63,079.40","5,040.25",35.46,,,,,,,,,,"63,135.81",,,,,,,,,,,,,,,,,,,,5019.3,,,,,,,,,,,,,,,,,N,N,N
1005245,110006765134,ANR Pipeline Celestine CS,Celestine,IN,47521,146 S. Celestine South,DUBOIS COUNTY,38.38,-86.78,486210,"C,W-NGTC",Petroleum and Natural Gas Systems,"41,898.83","33,185.10","8,695.25",18.48,,,,,,,,,,"33,203.63",,,,,,,,,,,,,,,,,,,,8695.2,,,,,,,,,,,,,,,,,N,N,N
1009589,110006121945,ANR Pipeline Cottage Grove CS,Cottage Grove,TN,38224,7845 Highway 140 N,HENRY,36.39,-88.48,486210,"C,W-NGTC",Petroleum and Natural Gas Systems,"36,764.60","28,193.10","8,556.00",15.50,,,,,,,,,,"28,206.35",,,,,,,,,,,,,,,,,,,,8558.25,,,,,,,,,,,,,,,,,N,N,N
1007403,110038440933,ANR Pipeline Defiance CS,Defiance,OH,43512,6357 State Route 66 N,DEFIANCE COUNTY,41.35,-84.36,486210,"C,W-NGTC",Petroleum and Natural Gas Systems,"71,951.61","50,255.30","21,668.00",28.31,,,,,,,,,,"50,268.56",,,,,,,,,,,,,,,,,,,,21683.05,,,,,,,,,,,,,,,,,N,N,N
1004932,110001878086,ANR Pipeline E.G. Hill CS,GRUVER,TX,79040,15175 County Road,HANSFORD,36.49,-101.47,486210,"C,W-NGTC",Petroleum and Natural Gas Systems,"60,793.64","43,611.20","17,158.00",24.44,,,,,,,,,,"43,646.84",,,,,,,,,,,,,,,,,,,,17146.8,,,,,,,,,,,,,,,,,N,N,N
1004930,110017476756,ANR Pipeline Enterprise CS,ENTERPRISE,KS,67441,1615 NAIL ROAD,DICKINSON,38.82,-97.09,486210,"C,W-NGTC",Petroleum and Natural Gas Systems,"52,994.28","32,497.60","20,478.50",18.18,,,,,,,,,,"32,514.93",,,,,,,,,,,,,,,,,,,,20479.35,,,,,,,,,,,,,,,,,N,N,N
1004776,110070081905,ANR Pipeline Greensburg CS,GREENSBURG,KS,67054,,KIOWA,37.61,-99.40,486210,"C,W-NGTC",Petroleum and Natural Gas Systems,"55,344.32","33,603.30","21,722.25",18.77,,,,,,,,,,"33,620.82",,,,,,,,,,,,,,,,,,,,21723.5,,,,,,,,,,,,,,,,,N,N,N
1005238,110012665419,ANR Pipeline Greenville CS,Greenville,MS,38703,1336 South Raceway Road,WASHINGTON COUNTY,33.37,-91.01,486210,"C,W-NGTC",Petroleum and Natural Gas Systems,"19,814.35","12,926.70","6,880.50",7.15,,,,,,,,,,"12,928.05",,,,,,,,,,,,,,,,,,,,6886.3,,,,,,,,,,,,,,,,,N,N,N
1004923,110001847734,ANR Pipeline Hamilton CS,HAMILTON,MI,49419,4193 134TH AVENUE,ALLEGAN,42.67,-85.96,486210,"C,W-NGTC",Petroleum and Natural Gas Systems,"44,583.62","34,952.80","9,611.75",19.07,,,,,,,,,,"34,972.27",,,,,,,,,,,,,,,,,,,,9611.35,,,,,,,,,,,,,,,,,N,N,N
1005958,110013860526,ANR Pipeline Blue Lake Complex Gas Storage Facility,MANCELONA,MI,49659,10000 PFLUM RD NE,KALKASKA,44.84,-84.97,486210,"C,W-UNSTG",Petroleum and Natural Gas Systems,"22,652.88","19,215.10","3,426.75",11.03,,,,,,,,,,"19,232.58",,,,,,,,,,,,,,,,,,,,,3420.3,,,,,,,,,,,,,,,,N,N,N
1004935,110043801892,ANR Pipeline Havensville CS,HAVENSVILLE,KS,66432,19955 ENGLISH RIDGE RD,POTTAWATOMIE COUNTY,39.49,-96.04,486210,"C,W-NGTC",Petroleum and Natural Gas Systems,"33,722.84","29,378.40","4,327.75",16.69,,,,,,,,,,"29,405.69",,,,,,,,,,,,,,,,,,,,4317.15,,,,,,,,,,,,,,,,,N,N,N
1005067,110002027869,ANR Pipeline Lincoln Gas Storage Facility,LAKE GEORGE,MI,48633,3991 HICKORY RD,CLARE,43.94,-84.94,486210,"C,W-UNSTG",Petroleum and Natural Gas Systems,"25,441.48","18,727.80","6,703.25",10.43,,,,,,,,,,"18,740.58",,,,,,,,,,,,,,,,,,,,,6700.9,,,,,,,,,,,,,,,,N,N,N
1005953,110043797870,ANR Pipeline Lineville CS,LINEVILLE,IA,50147,2868 15TH STREET,WAYNE COUNTY,40.63,-93.54,486210,"C,W-NGTC",Petroleum and Natural Gas Systems,"56,084.17","34,215.10","21,850.00",19.07,,,,,,,,,,"34,233.42",,,,,,,,,,,,,,,,,,,,21850.75,,,,,,,,,,,,,,,,,N,N,N
1005242,110003227936,ANR Pipeline Madisonville CS,Madisonville,KY,77002,7500 Nebo Road,HOPKINS COUNTY,37.38,-87.62,486210,"C,W-NGTC",Petroleum and Natural Gas Systems,"46,235.01","36,089.20","10,125.25",20.56,,,,,,,,,,"36,108.46",,,,,,,,,,,,,,,,,,,,10126.55,,,,,,,,,,,,,,,,,N,N,N
1005060,110043796960,ANR Pipeline Maitland CS,MAITLAND,MO,64466,33854 COUNTY HIGHWAY TT,HOLT,40.18,-95.12,486210,"C,W-NGTC",Petroleum and Natural Gas Systems,"62,747.09","41,522.80","21,200.75",23.54,,,,,,,,,,"41,549.34",,,,,,,,,,,,,,,,,,,,21197.75,,,,,,,,,,,,,,,,,N,N,N
1009733,110011599948,ANR Pipeline Meade CS,Meade,KS,67864,28111 11 Road,MEADE,37.08,-100.47,486210,"C,W-NGTC",Petroleum and Natural Gas Systems,"37,398.87","21,508.90","15,877.75",12.22,,,,,,,,,,"21,521.87",,,,,,,,,,,,,,,,,,,,15877,,,,,,,,,,,,,,,,,N,N,N
1009608,110055517258,ANR Pipeline Mooreland CS,Mooreland,OK,73852,14070 US Highway 412,WOODWARD COUNTY,36.47,-99.15,486210,"C,W-NGTC",Petroleum and Natural Gas Systems,"28,192.16","24,175.70","4,002.75",13.71,,,,,,,,,,"24,198.01",,,,,,,,,,,,,,,,,,,,3994.15,,,,,,,,,,,,,,,,,N,N,N
1004769,110043807235,ANR Pipeline New Windsor CS,NEW WINDSOR,IL,61465,296 NORTH 600 AVE,MERCER,41.21,-90.44,486210,"C,W-NGTC",Petroleum and Natural Gas Systems,"54,014.47","34,386.10","19,609.00",19.37,,,,,,,,,,"34,406.32",,,,,,,,,,,,,,,,,,,,19608.15,,,,,,,,,,,,,,,,,N,N,N
1005243,110006178331,ANR Pipeline Patterson CS,PATTERSON,LA,70392,3609 Highway 90,SAINT MARY,29.69,-91.34,486210,"C,W-NGTC",Petroleum and Natural Gas Systems,"33,189.59","28,031.30","5,142.50",15.79,,,,,,,,,,"28,055.44",,,,,,,,,,,,,,,,,,,,5134.15,,,,,,,,,,,,,,,,,N,N,N
1009590,110055517212,ANR Pipeline Portland CS,Portland,IN,47371,6059 W State Road 26,JAY COUNTY,40.44,-85.10,486210,"C,W-NGTC",Petroleum and Natural Gas Systems,"35,002.26","25,093.50","9,894.75",14.01,,,,,,,,,,"25,101.36",,,,,,,,,,,,,,,,,,,,9900.9,,,,,,,,,,,,,,,,,N,N,N
1004937,110018479813,ANR Pipeline Sandwich CS,SANDWICH,IL,60548,6650 SANDY BLUFF RD,KENDALL COUNTY,41.62,-88.58,486210,"C,W-NGTC",Petroleum and Natural Gas Systems,"28,140.72","22,348.70","5,779.50",12.52,,,,,,,,,,"22,367.22",,,,,,,,,,,,,,,,,,,,5773.5,,,,,,,,,,,,,,,,,N,N,N
1005244,110009113645,ANR Pipeline Sardis CS,Sardis,MS,38666,2099 Holly Grove Road,PANOLA COUNTY,34.42,-90.13,486210,"C,W-NGTC",Petroleum and Natural Gas Systems,"26,337.88","19,072.90","7,254.25",10.73,,,,,,,,,,"19,080.13",,,,,,,,,,,,,,,,,,,,7257.75,,,,,,,,,,,,,,,,,N,N,N
1005236,110009739569,ANR Pipeline Shelbyville CS,Shelbyville,IN,46176,5500 Smithland Road,SHELBY,39.44,-85.88,486210,"C,W-NGTC",Petroleum and Natural Gas Systems,"55,225.29","42,383.20","12,818.25",23.84,,,,,,,,,,"42,403.84",,,,,,,,,,,,,,,,,,,,12821.45,,,,,,,,,,,,,,,,,N,N,N
1004925,110001306088,ANR Pipeline St. John CS,ST JOHN,IN,46373,10313 WHITE OAK AVE,LAKE,41.43,-87.49,486210,"C,W-NGTC",Petroleum and Natural Gas Systems,"19,613.76","11,978.50","7,629.00",6.26,,,,,,,,,,"11,984.21",,,,,,,,,,,,,,,,,,,,7629.55,,,,,,,,,,,,,,,,,N,N,N
1004933,110040962303,ANR Pipeline Woolfolk CS,BIG RAPIDS,MI,49307,11039 150TH AVENUE,MECOSTA,43.62,-85.38,486210,"C,W-NGTC",Petroleum and Natural Gas Systems,"46,636.95","25,467.60","21,154.75",14.60,,,,,,,,,,"25,476.00",,,,,,,,,,,,,,,,,,,,21160.95,,,,,,,,,,,,,,,,,N,N,N
1004802,110000729105,ANSHUTZ RANCH EAST GAS PLANT,EVANSTON,WY,82930,20 MILES SOUTHWEST OF EVANSTON,UINTA,41.07,-111.04,211111,"C,W-PROC",Petroleum and Natural Gas Systems,"15,557.10","11,999.70","3,550.25",7.15,,,,,,,,,,"8,684.77",,,,,,,,,,,,,,,,,,,6872.334,,,,,,,,,,,,,,,,,,N,N,N
1007710,110038067472,ANTELOPE VALLEY RECYCLING AND DISPOSAL FACILITY,PALMDALE,CA,93551,1200 WEST CITY RANCH ROAD,LOS ANGELES,34.57,-118.14,562212,"C,HH",Waste,"33,973.15",105.20,"33,867.68",0.27,,,,,,,,,,105.58,,,,,,,,,,,,,,,,,,,,,,,,,,,,,,,,,"33,867.57",,,,N,N,N
1004003,110013935331,APACHE JUNCTION LANDFILL,APACHE JUNCTION,AZ,85219,4050 SOUTH TOMAHAWK RD,PINAL COUNTY,33.38,-111.53,562212,HH,Waste,"132,469.25",,"132,469.25",,,,,,,,,,,,,,,,,,,,,,,,,,,,,,,,,,,,,,,,,,,,"132,469.25",,,,N,N,N
1001908,110017427033,APACHE NITROGEN PRODUCTS - PLANT,St. David,AZ,85630,1436 SOUTH APACHE POWDER ROAD,COCHISE COUNTY,31.88,-110.24,325311,"C,V",Chemicals,"415,246.54","25,337.00",12.00,"389,897.54",,,,,,,,,,"25,363.30",,,,,,,,,,,,,,,,,"389,883.23",,,,,,,,,,,,,,,,,,,,N,N,N
1006777,110024560875,"APEX ENVIRONMENTAL, LLC - SANITARY LANDFILL (0641000223)",AMSTERDAM,OH,43903,11 COUNTY ROAD 78,JEFFERSON COUNTY,40.43,-80.91,562212,"C,HH",Waste,"358,503.50",53.00,"358,450.50",,,,,,,,,,,53.00,,,,,,,,,,,,,,,,,,,,,,,,,,,,,,,,,"358,450.50",,,,N,N,N
1004352,110043798147,APEX REGIONAL LANDFILL,LAS VEGAS,NV,89165,13550 US HIGHWAY 93 NORTH,CLARK,36.29,-115.28,562212,"C,HH",Waste,"222,225.25","3,673.70","218,543.50",8.05,,,,,,,,,,"3,685.25",,,,,,,,,,,,,,,,,,,,,,,,,,,,,,,,,"218,540.00",,,,N,N,N
1000793,110000585956,"APG Polytech, LLC",APPLE GROVE,WV,25502,27610 Huntington Road,MASON COUNTY,38.66,-82.17,325211,C,Other,"45,754.13","45,707.00",21.50,25.63,,,,,,,,,,"45,754.13",,,,,,,,,,,,,,,,,,,,,,,,,,,,,,,,,,,,,N,N,N
1010353,110055520547,APPLEBY TREATER,Appleby,TX,75965,,NACOGDOCHES,31.69,-94.58,211112,"C,W-PROC",Petroleum and Natural Gas Systems,"64,782.44","64,528.80",245.00,8.64,,,,,,,,,,"15,277.89",,,,,,,,,,,,,,,,,,,49504.55,,,,,,,,,,,,,,,,,,N,N,N
1005669,110000332177,APPLETON ROARING SPRING PAPER MFG,ROARING SPRING,PA,16673,100 PAPER MILL RD.,BLAIR COUNTY,40.34,-78.41,322121,"AA,C",Pulp and Paper,"106,758.94","100,687.30","2,144.00","3,927.64",,,,,,,,,"232,596.20","91,030.52",,,,,,,,,,,,,,,,,,,,,,,,,,,"15,728.42",,,,,,,,,,N,N,N
1002596,110000423140,APPVION - APPLETON PLT,APPLETON,WI,54911,825 E WISCONSIN AVE,OUTAGAMIE COUNTY,44.27,-88.39,322222,C,Pulp and Paper,"33,369.12","33,334.00",15.75,19.37,,,,,,,,,,"33,369.12",,,,,,,,,,,,,,,,,,,,,,,,,,,,,,,,,,,,,N,N,N
1002434,110000394948,"APPVION, INC. WEST CARROLLTON",WEST CARROLLTON,OH,45449,1030 WEST ALEX BELL ROAD,MONTGOMERY COUNTY,39.65,-84.19,322121,C,Pulp and Paper,"102,537.52","101,858.40",250.00,429.12,,,,,,,,,,"102,537.52",,,,,,,,,,,,,,,,,,,,,,,,,,,,,,,,,,,,,N,N,N
1001423,110041968902,APS Saguaro Power Plant,RED ROCK,AZ,85245,MAIL POST 228,Pinal,32.55,-111.30,221112,"C,D",Power Plants,"13,593.55","13,579.30",6.50,7.75,,,,,,,,,,"2,443.54","11,150.01",,,,,,,,,,,,,,,,,,,,,,,,,,,,,,,,,,,,N,N,N
1001422,110017422145,APS West Phoenix Power Plant,PHOENIX,AZ,85043,4606 WEST HADLEY,Maricopa,33.44,-112.16,221112,"C,D",Power Plants,"986,293.54","985,290.70",457.50,545.34,,,,,,,,,,"121,412.04","864,881.50",,,,,,,,,,,,,,,,,,,,,,,,,,,,,,,,,,,,N,N,N
1007510,110021157497,"AQUILA, INC. - AIRPORT INDUSTRIAL SITE",PUEBLO,CO,81001,475 WILLIAM M WHITE BLVD,PUEBLO,38.28,-104.53,221112,C,Power Plants,59.60,59.60,,,,,,,,,,,,59.60,,,,,,,,,,,,,,,,,,,,,,,,,,,,,,,,,,,,,N,N,N
1000579,110022509052,"AQUILA, INC. - PUEBLO POWER PLANT",PUEBLO,CO,81003,105 S VICTORIA AVE,PUEBLO,38.27,-104.62,221112,C,Power Plants,39.10,39.10,,,,,,,,,,,,39.10,,,,,,,,,,,,,,,,,,,,,,,,,,,,,,,,,,,,,N,N,N
1005906,110001709116,AR GLASS CONTAINER CORP,JONESBORO,AR,72401,516 WEST JOHNSON AVENUE,CRAIGHEAD COUNTY,35.85,-90.71,327213,"C,N",Minerals,"40,057.58","40,023.60",15.50,18.48,,,,,,,,,,"33,060.98",,,,,,,,,"6,996.60",,,,,,,,,,,,,,,,,,,,,,,,,,,,N,N,N
1005055,110000346992,ARAUCO-USA LLC,MONCURE,NC,27559,985 CORINTH ROAD,CHATHAM COUNTY,35.60,-79.04,321219,C,Other,"8,951.65","4,874.60","1,588.75","2,488.30",,,,,,,,,"185,987.10","8,951.65",,,,,,,,,,,,,,,,,,,,,,,,,,,,,,,,,,,,,N,N,N
1003962,110000607558,ARCELORMITTAL BURNS HARBOR LLC,BURNS HARBOR,IN,46304,250 W US 12,PORTER COUNTY,41.63,-87.14,331111,"C,Q",Metals,"8,815,543.65","8,813,085.50",647.50,"1,810.65",,,,,,,,,,"5,622,246.66",,,,,,,,,,,,"3,193,296.99",,,,,,,,,,,,,,,,,,,,,,,,,N,N,N
1003668,110005981928,ARCELORMITTAL PLATE LLC,COATESVILLE,PA,19320,139 MODENA RD,CHESTER COUNTY,39.98,-75.83,331111,"C,Q",Metals,"210,959.24","210,820.60",63.25,75.39,,,,,,,,,,"134,325.84",,,,,,,,,,,,"76,633.40",,,,,,,,,,,,,,,,,,,,,,,,,N,N,N
1003523,110000745007,ARCELORMITTAL PLATE LLC/CONSHOHOCKEN PLT,CONSHOHOCKEN,PA,19428,900 CONSHOHOCKEN RD,MONTGOMERY COUNTY,40.09,-75.32,331111,C,Metals,"63,120.21","63,055.00",29.75,35.46,,,,,,,,,,"63,120.21",,,,,,,,,,,,,,,,,,,,,,,,,,,,,,,,,,,,,N,N,N
1006325,110015682215,ARCELORMITTAL RIVERDALE LLC,RIVERDALE,IL,60827,13500 S PERRY AVE,COOK COUNTY,41.66,-87.63,331111,"C,Q",Metals,"144,968.42","144,917.60",24.00,26.82,,,,,,,,,,"50,949.62",,,,,,,,,,,,"94,018.80",,,,,,,,,,,,,,,,,,,,,,,,,N,N,N
1004215,110000332916,ARCELORMITTAL STEELTON LLC/STEELTON,STEELTON,PA,17113,215 S FRONT ST,DAUPHIN COUNTY,40.23,-76.84,331111,"C,Q",Metals,"146,449.11","146,358.00",33.00,58.11,,,,,,,,,,"103,458.11",,,,,,,,,,,,"42,991.00",,,,,,,,,,,,,,,,,,,,,,,,,N,N,N
1005385,110041568568,ARCELORMITTAL TUBULAR PRODUCTS SHELBY LLC,SHELBY,OH,44875,132-140 W MAIN ST,RICHLAND COUNTY,40.88,-82.67,331210,C,Metals,"64,281.31","64,215.00",30.25,36.06,,,,,,,,,,"64,281.31",,,,,,,,,,,,,,,,,,,,,,,,,,,,,,,,,,,,,N,N,N
1003380,110012566767,ARCELORMITTAL WARREN  (0278000648),WARREN,OH,44481,2234 MAIN AVE SW,TRUMBULL COUNTY,41.21,-80.82,324199,"C,Q",Metals,"140,092.37","139,950.90",47.00,94.47,,,,,,,,,,"131,181.53",,,,,,,,,,,,"8,910.83",,,,,,,,,,,,,,,,,,,,,,,,,N,N,N
1002916,110000448043,ARCHER DANIEL MIDLAND COMPANY,COLUMBUS,NE,68601,3000 E 8TH STREET,PLATTE COUNTY,41.42,-97.29,311221,"C,II","Other,Waste","1,218,405.52","1,203,493.50","9,357.00","5,555.02",,,,,,,,,"22,428.00","1,212,265.52",,,,,,,,,,,,,,,,,,,,,,,,,,,,,,,,,,"6,140.00",,,N,N,N
1001945,110000427128,ARCHER DANIELS MIDLAND,MARSHALL,MN,56258,400 WEST ERIE ROAD,LYON COUNTY,44.47,-95.78,311221,"C,II,PP","Other,Suppliers of CO2,Waste","179,603.53","178,203.00","1,218.75",181.78,,,,,,,,,"4,272.70","178,511.28",,,,,,,,,,,,,,,,,,,,,,,,,,,,,,,,,,"1,092.25",,,N,N,N
1003215,110000592047,ARCHER DANIELS MIDLAND,FRANKFORT,IN,46041,2191 W CR 0 NS,CLINTON COUNTY,40.29,-86.55,311222,C,Other,"54,888.44","54,832.00",25.75,30.69,,,,,,,,,,"54,888.44",,,,,,,,,,,,,,,,,,,,,,,,,,,,,,,,,,,,,N,N,N
1005935,110002382680,ARCHER DANIELS MIDLAND COMPANY,LINCOLN,NE,68507,7800 THAYER STREET,LANCASTER COUNTY,40.87,-96.62,311222,C,Other,"172,839.49","171,681.30",426.00,732.19,,,,,,,,,,"172,839.49",,,,,,,,,,,,,,,,,,,,,,,,,,,,,,,,,,,,,N,N,N
1005940,110000595115,ARCHER DANIELS MIDLAND PROCESSING,VELVA,ND,58790,1388 HIGHWAY 97,MCHENRY COUNTY,48.06,-100.92,311225,C,Other,"37,476.91","37,438.00",17.75,21.16,,,,,,,,,,"37,476.91",,,,,,,,,,,,,,,,,,,,,,,,,,,,,,,,,,,,,N,N,N
1002795,110000916812,ARCONIC INC - TENNESSEE OPERATIONS,ALCOA,TN,37701,2300 N WRIGHT RD,BLOUNT COUNTY,35.81,-83.97,331315,C,Metals,"193,670.53","193,472.00",91.25,107.28,,,,,,,,,,"193,670.53",,,,,,,,,,,,,,,,,,,,,,,,,,,,,,,,,,,,,N,N,N
1007937,110000416005,ARCONIC INC DAVENPORT WORKS,BETTENDORF,IA,52722,4879 STATE STREET,SCOTT COUNTY,41.53,-90.47,331315,C,Metals,"202,071.84","201,853.30",97.25,121.29,,,,,,,,,,"202,071.84",,,,,,,,,,,,,,,,,,,,,,,,,,,,,,,,,,,,,N,N,N
1002483,110000582735,ARCONIC INC MASSENA OPERATIONS,MASSENA,NY,13662,45 COUNTY ROUTE 42,SAINT LAWRENCE,44.95,-74.89,331312,"C,F,TT","Metals,Waste","310,471.76","278,414.50","12,495.00",36.06,,"19,526.20",,,,,,,,"67,309.31",,,"230,699.20",,,,,,,,,,,,,,,,,,,,,,,,,,,,,,,,,"12,463.25",N,N,N
1004649,110000404198,ARCONIC INC. - LAFAYETTE OPERATIONS,LAFAYETTE,IN,47905,3131 E MAIN ST,TIPPECANOE COUNTY,40.40,-86.87,331316,C,Metals,"49,414.90","49,362.60",22.50,29.80,,,,,,,,,,"49,414.90",,,,,,,,,,,,,,,,,,,,,,,,,,,,,,,,,,,,,N,N,N
1003456,110061023663,ARDEN LDFL,WASHINGTON,PA,15301,200 Rangos Lane,WASHINGTON,40.21,-80.26,562212,"C,HH",Waste,"35,364.13","2,010.77","33,272.55",80.82,,,,,,,,,"21,113.59","2,126.01",,,,,,,,,,,,,,,,,,,,,,,,,,,,,,,,,"33,238.12",,,,N,N,N
1006659,110000589015,ARGOS CEMENT LLC. - ROBERTA PLANT,CALERA,AL,35040,8039 HIGHWAY 25,SHELBY COUNTY,33.10,-86.80,327310,"C,H",Minerals,"694,436.48","691,876.20",963.00,"1,597.28",,,,,,,,,,6.20,,,,,"694,430.28",,,,,,,,,,,,,,,,,,,,,,,,,,,,,,,,N,N,N
1007566,110000585929,ARGOS USA -Martinsburg,MARTINSBURG,WV,25401,1826 SOUTH QUEEN STREET,BERKELEY COUNTY,39.43,-77.98,327310,"C,H",Minerals,"720,826.92","718,095.20",998.25,"1,733.47",,,,,,,,,,"1,250.23",,,,,"719,576.69",,,,,,,,,,,,,,,,,,,,,,,,,,,,,,,,N,N,N
1002442,110000362287,ARIZONA CHEMICAL COMPANY,PANAMA CITY,FL,32401,"2 EVERITT AVE., S. END",BAY,30.15,-85.62,325191,C,Chemicals,"70,344.88","70,272.00",33.25,39.63,,,,,,,,,,"70,344.88",,,,,,,,,,,,,,,,,,,,,,,,,,,,,,,,,,,,,N,N,N
1006199,110043811792,ARIZONA STATE UNIVERSITY,TEMPE,AZ,85281,"300 E. University Drive, Suite 320",MARICOPA,33.42,-111.94,611310,C,Other,"46,195.57","46,147.00",21.75,26.82,,,,,,,,,,"46,195.57",,,,,,,,,,,,,,,,,,,,,,,,,,,,,,,,,,,,,N,N,N
1005801,110000451671,ARK STEEL ASSOCIATES,NEWPORT,AR,72112,2803 VAN DYKE ROAD,JACKSON COUNTY,35.65,-91.24,331221,"C,Q",Metals,"52,675.32","52,638.60",16.75,19.97,,,,,,,,,,"35,463.72",,,,,,,,,,,,"17,211.60",,,,,,,,,,,,,,,,,,,,,,,,,N,N,N
1006203,110032953294,ARKALON ETHANOL LLC,LIBERAL,KS,67901,8664 RD P,SEWARD,37.11,-100.80,325193,"C,II,PP","Other,Suppliers of CO2,Waste","111,242.13","110,977.60",202.25,62.28,,,,,,,,,,"111,092.13",,,,,,,,,,,,,,,,,,,,,,,,,,,,,,,,,,150.00,,,N,N,N
1002209,110001711997,ARKANSAS LIME COMPANY,BATESVILLE,AR,72501,600 LIMEDALE ROAD,INDEPENDENCE COUNTY,35.79,-91.72,327410,"C,S",Minerals,"435,943.39","434,627.80",509.50,806.09,,,,,,,,,,"178,763.19",,,,,,,,,,,,,,"257,180.20",,,,,,,,,,,,,,,,,,,,,,,N,N,N
1006644,110000464168,ARKEMA BEAUMONT PLANT,BEAUMONT,TX,77701,2810 GULF STATES ROAD,JEFFERSON,30.06,-94.06,325199,C,Chemicals,"53,116.60","53,061.80",25.00,29.80,,,,,,,,,,"53,116.60",,,,,,,,,,,,,,,,,,,,,,,,,,,,,,,,,,,,,N,N,N
1006797,110030493320,ARKEMA INC CLEAR LAKE,PASADENA,TX,77507,9502 BAYPORT BLVD STE B,HARRIS COUNTY,29.62,-95.06,325110,C,Chemicals,"56,227.19","56,169.10",26.50,31.59,,,,,,,,,,"56,227.19",,,,,,,,,,,,,,,,,,,,,,,,,,,,,,,,,,,,,N,N,N
1005721,110000380061,"ARKEMA, INC.",CALVERT CITY,KY,42029,4444 INDUSTRIAL PARKWAY,MARSHALL COUNTY,37.06,-88.37,325120,"C,L,OO","Chemicals,Industrial Gas Suppliers","3,035,446.67","67,123.10",31.50,39.04,"2,967,545.90",,,,,,7.13,700.00,,"67,193.64",,,,,,,,"2,968,253.03",,,,,,,,,,,,,,,,,,,,,,,,,,,,,N,N,N
1006785,110007029562,ARMSTRONG CEMENT & SUPPLY,CABOT,PA,16023,100 CLEARFIELD ROAD,BUTLER COUNTY,40.79,-79.70,327310,"C,H",Minerals,"159,648.44","158,881.70",281.00,485.74,,,,,,,,,,32.20,,,,,"159,616.24",,,,,,,,,,,,,,,,,,,,,,,,,,,,,,,,N,N,N
1003208,110000333906,ARMSTRONG WORLD IND MARIETTA CEILING PLT,MARIETTA,PA,17547,1507 RIVER ROAD,LANCASTER COUNTY,40.06,-76.59,339999,C,Other,"69,736.91","69,668.40",32.75,35.76,,,,,,,,,,"69,736.91",,,,,,,,,,,,,,,,,,,,,,,,,,,,,,,,,,,,,N,N,N
1002968,110001737130,ARMSTRONG WORLD INDUSTRIES INC.,PENSACOLA,FL,32505,300 SOUTH MYRICK ST,ESCAMBIA COUNTY,30.41,-87.25,339999,C,Other,"33,027.98","32,994.00",15.50,18.48,,,,,,,,,,"33,027.98",,,,,,,,,,,,,,,,,,,,,,,,,,,,,,,,,,,,,N,N,N
1003235,110000486750,"ARMSTRONG WORLD INDUSTRIES, INC.",SAINT HELENS,OR,97051,1645 RAILROAD AVENUE,COLUMBIA COUNTY,45.84,-122.82,339999,C,Other,"30,906.63","30,822.70",14.50,69.43,,,,,,,,,,"30,906.63",,,,,,,,,,,,,,,,,,,,,,,,,,,,,,,,,,,,,N,N,N
1002515,110043804096,ARTESIA GAS PLANT,ARTESIA,NM,88210,,EDDY COUNTY,32.76,-104.21,211112,"C,PP,UU,W-PROC","Injection of CO2,Petroleum and Natural Gas Systems,Suppliers of CO2","113,956.86","104,093.37","9,813.13",50.36,,,,,,,,,,"78,567.96",,,,,,,,,,,,,,,,,,,35388.904,,,,,,,,,,,,,,,,,,N,N,N
1002689,110012695306,ARVIN SANITARY LANDFILL,ARVIN,CA,93203,5500 NORTH WHEELER RIDGE ROAD,KERN COUNTY,35.19,-118.91,562212,HH,Waste,"13,607.75",,"13,607.75",,,,,,,,,,,,,,,,,,,,,,,,,,,,,,,,,,,,,,,,,,,,"13,607.75",,,,N,N,N
1002494,110000743955,ASARCO LLC AMARILLO COPPER REFINERY,AMARILLO,TX,79108,7001 NORTH HIGHWAY 136,POTTER COUNTY,35.28,-101.73,331411,C,Metals,"59,864.92","59,803.00",28.25,33.67,,,,,,,,,,"59,864.92",,,,,,,,,,,,,,,,,,,,,,,,,,,,,,,,,,,,,N,N,N
1002486,110069332261,ASARCO LLC Hayden Operations,Hayden,AZ,85135,100 Hayden Avenue,GILA COUNTY,33.00,-110.78,331411,C,Metals,"59,368.48","59,307.10",28.00,33.38,,,,,,,,,,"59,368.48",,,,,,,,,,,,,,,,,,,,,,,,,,,,,,,,,,,,,N,N,N
1002190,110000503722,ASCEND PERFORMANCE MATERIALS CHOCOLATE BAYOU FACILITY,ALVIN,TX,77512,,BRAZORIA COUNTY,29.26,-95.21,325199,"C,X",Chemicals,"603,350.18","603,098.10",115.00,137.08,,,,,,,,,,"243,926.78",,,,,,,,,,,,,,,,,,,,,,,,"359,423.40",,,,,,,,,,,,,N,N,N
1003975,110040916113,ASCEND PERFORMANCE MATERIALS OPERATIONS LLC,GREENWOOD,SC,29646,1515 HWY 246 S,GREENWOOD COUNTY,34.23,-82.06,325222,C,Other,"48,744.46","48,693.50",23.25,27.71,,,,,,,,,,"48,744.46",,,,,,,,,,,,,,,,,,,,,,,,,,,,,,,,,,,,,N,N,N
1006137,110000468342,ASH GROVE CEMENT - INKOM,INKOM,ID,83245,230 CEMENT ROAD,BANNOCK COUNTY,42.79,-112.25,327310,C,Minerals,194.00,194.00,,,,,,,,,,,,194.00,,,,,,,,,,,,,,,,,,,,,,,,,,,,,,,,,,,,,N,N,N
1002665,110000445929,ASH GROVE CEMENT CO-CHANUTE PLANT,CHANUTE,KS,66720,1801 NORTH SANTA FE STREET,NEOSHO COUNTY,37.70,-95.46,327310,"C,H",Minerals,"781,679.58","780,638.50",382.50,658.58,,,,,,,,,,"1,637.80",,,,,"780,041.78",,,,,,,,,,,,,,,,,,,,,,,,,,,,,,,,N,N,N
1002421,110000459192,ASH GROVE CEMENT COMPANY,MIDLOTHIAN,TX,76065,900 GIFCO ROAD,ELLIS COUNTY,32.52,-97.01,327310,"C,H",Minerals,"924,087.40","915,316.50","3,317.50","5,453.40",,,,,,,,,,241.60,,,,,"923,845.80",,,,,,,,,,,,,,,,,,,,,,,,,,,,,,,,N,N,N
1002527,110017417776,ASH GROVE CEMENT COMPANY-DURKEE,DURKEE,OR,97905,33060 SHIRTTAIL CREEK ROAD,BAKER COUNTY,44.54,-117.42,327310,"C,H",Minerals,"453,138.25","451,821.10",482.75,834.40,,,,,,,,,,27.10,,,,,"453,111.15",,,,,,,,,,,,,,,,,,,,,,,,,,,,,,,,N,N,N
1007552,110000596793,ASH GROVE CEMENT COMPANY-Louisville,LOUISVILLE,NE,68037,16215 HWY. 50,CASS COUNTY,41.01,-96.15,327310,"C,H",Minerals,"678,085.01","676,074.80",737.75,"1,272.46",,,,,,,,,,"10,053.51",,,,,"668,031.50",,,,,,,,,,,,,,,,,,,,,,,,,,,,,,,,N,N,N
1002531,110000595197,ASH GROVE CEMENT COMPANY-MONTANA CITY,CLANCY,MT,59634,100 HIGHWAY 518,JEFFERSON COUNTY,46.54,-111.92,327310,"C,H",Minerals,"279,845.50","278,835.60",369.50,640.40,,,,,,,,,,"135,843.80",,,,,"144,001.70",,,,,,,,,,,,,,,,,,,,,,,,,,,,,,,,N,N,N
1002537,110000897085,ASH GROVE CEMENT COMPANY-SEATTLE,SEATTLE,WA,98134,3801 EAST MARGINAL WAY SOUTH,KING COUNTY,47.57,-122.34,327310,H,Minerals,"305,297.85","304,825.00",227.00,245.85,,,,,,,,,,,,,,,"305,297.85",,,,,,,,,,,,,,,,,,,,,,,,,,,,,,,,N,N,N
1007606,110000597729,ASH GROVE CEMENT-FOREMAN,Foreman,AR,71836,4343 HWY 108,LITTLE RIVER COUNTY,33.70,-94.42,327310,"C,H",Minerals,"531,702.69","531,028.80",247.75,426.14,,,,,,,,,,86.80,,,,,"531,615.89",,,,,,,,,,,,,,,,,,,,,,,,,,,,,,,,N,N,N
1002479,110007023513,ASHLAND #2 CMPSR STA,Coalgate,OK,74538,15718 STATE HIGHWAY 31,COAL,34.74,-96.11,486210,C,Petroleum and Natural Gas Systems,"24,636.91","24,611.70",11.50,13.71,,,,,,,,,,"24,636.91",,,,,,,,,,,,,,,,,,,,,,,,,,,,,,,,,,,,,N,N,N
1003496,110009878748,ASHLEY Energy LLC,SAINT LOUIS,MO,63102,1 ASHLEY STREET,ST. LOUIS CITY,38.64,-90.18,221330,C,Power Plants,"68,090.30","68,020.70",31.75,37.85,,,,,,,,,,"68,090.30",,,,,,,,,,,,,,,,,,,,,,,,,,,,,,,,,,,,,N,N,N
1004576,110043792401,ASTORIA ENERGY LLC & ASTORIA ENERGY II LLC,ASTORIA,NY,11105,17-10 STEINWAY ST,QUEENS,40.78,-73.90,221112,D,Power Plants,"2,585,286.85","2,582,658.50","1,198.25","1,430.10",,,,,,,,,,,"2,585,286.85",,,,,,,,,,,,,,,,,,,,,,,,,,,,,,,,,,,,N,N,N
1007800,110007336203,ATASCOCITA RECYCLING AND DISPOSAL FACILITY,HUMBLE,TX,77396,3623 WILSON ROAD,HARRIS COUNTY,29.95,-95.25,562212,HH,Waste,"224,095.67",,"224,095.67",,,,,,,,,,,,,,,,,,,,,,,,,,,,,,,,,,,,,,,,,,,,"224,095.67",,,,N,N,N
1006056,110013454957,ATHENS & CLARKE COUNTIES-DUNLAP ROAD LF,WINTERVILLE,GA,30683,5700 LEXINGTON RD,CLARKE COUNTY,33.93,-83.26,562212,HH,Waste,"48,893.00",,"48,893.00",,,,,,,,,,,,,,,,,,,,,,,,,,,,,,,,,,,,,,,,,,,,"48,893.00",,,,N,N,N
1006778,110000348589,ATI Allvac - Monroe,MONROE,NC,28110,2020 ASHCRAFT AVENUE,UNION COUNTY,34.98,-80.51,331419,C,Metals,"59,914.21","59,849.70",28.75,35.76,,,,,,,,,,"59,914.21",,,,,,,,,,,,,,,,,,,,,,,,,,,,,,,,,,,,,N,N,N
1005442,110000417228,ATI LADISH LLC,CUDAHY,WI,53110,5481 S PACKARD AVE,MILWAUKEE COUNTY,42.95,-87.86,332112,C,Other,"67,156.70","67,087.10",31.75,37.85,,,,,,,,,,"67,156.70",,,,,,,,,,,,,,,,,,,,,,,,,,,,,,,,,,,,,N,N,N
1002570,110002380254,ATK Launch Systems Inc,MAGNA,UT,84044,5000 SOUTH 8400 WEST,SALT LAKE COUNTY,40.67,-112.09,336415,C,Other,"27,469.50","27,441.00",13.00,15.50,,,,,,,,,,"27,469.50",,,,,,,,,,,,,,,,,,,,,,,,,,,,,,,,,,,,,N,N,N
1002571,110032607329,ATK Launch Systems Inc,Promontory,UT,84307,9160 North Highway 83,BOX ELDER COUNTY,41.66,-112.43,336415,C,Other,"40,819.35","40,768.00",21.25,30.10,,,,,,,,,,"40,819.35",,,,,,,,,,,,,,,,,,,,,,,,,,,,,,,,,,,,,N,N,N
1003772,110000460670,"ATLANTIC COFFEE INDUSTRIAL SOLUTIONS, LLC",HOUSTON,TX,77003,3900 HARRISBURG BLVD.,HARRIS COUNTY,29.75,-95.34,311920,C,Other,"38,816.03","38,634.90",73.25,107.88,,,,,,,,,"8,130.60","38,816.03",,,,,,,,,,,,,,,,,,,,,,,,,,,,,,,,,,,,,N,N,N
1001858,110022939454,ATLANTIC COUNTY LANDFILL,EGG HARBOR TOWNSHIP,NJ,08234,6700 Delilah Road,ATLANTIC COUNTY,39.42,-74.54,562212,"C,HH",Waste,"36,428.40",258.40,"36,170.00",,,,,,,,,,,258.40,,,,,,,,,,,,,,,,,,,,,,,,,,,,,,,,,"36,170.00",,,,N,N,N
1003826,110020667580,ATLANTIC WASTE DISPOSAL INC - SUSSEX COUNTY LAND,WAVERLY,VA,23890,3474 ATLANTIC LN,SUSSEX,37.06,-77.18,562212,"C,HH",Waste,"173,364.53",466.81,"172,896.42",1.30,,,,,,,,,,468.66,,,,,,,,,,,,,,,,,,,,,,,,,,,,,,,,,"172,895.87",,,,N,N,N
1003034,110019344271,AUBURN SANITARY LANDFILL NO 2,AUBURN,NY,13021,311 NORTH DIVISION STREET,CAYUGA,42.95,-76.59,562212,"C,HH",Waste,"6,236.30",62.80,"6,173.50",,,,,,,,,,,62.80,,,,,,,,,,,,,,,,,,,,,,,,,,,,,,,,,"6,173.50",,,,N,N,N
1005000,110000380999,AUDUBON METALS LLC,HENDERSON,KY,42420,3055 OHIO DR.,HENDERSON COUNTY,37.81,-87.63,331314,C,Metals,"39,765.40","39,724.30",18.75,22.35,,,,,,,,,,"39,765.40",,,,,,,,,,,,,,,,,,,,,,,,,,,,,,,,,,,,,N,N,N
1006344,110030493561,AUGUSTA COUNTY SVC AUTHORITY LANDFILL,STAUNTON,VA,24401,749 Christians Creek Road,AUGUSTA COUNTY,38.08,-79.06,562212,"C,HH",Waste,"96,147.25",35.00,"96,112.25",,,,,,,,,,,35.00,,,,,,,,,,,,,,,,,,,,,,,,,,,,,,,,,"96,112.25",,,,N,N,N
1005945,110000426487,AUSTIN UTILITIES NORTHEAST POWER STATION,AUSTIN,MN,55912,3511 11TH ST. N.E.,MOWER COUNTY,43.70,-92.96,221112,"C,D",Power Plants,"7,977.57","7,968.50",4.00,5.07,,,,,,,,,,139.90,"7,837.67",,,,,,,,,,,,,,,,,,,,,,,,,,,,,,,,,,,,N,N,N
1007346,110008060702,AUSTIN WHITE LIME COMPANY MCNEIL PLANT & QUARRY,AUSTIN,TX,78728,14001 MCNEIL ROAD,TRAVIS COUNTY,30.45,-97.72,327410,"C,S",Minerals,"301,930.45","301,231.80",258.50,440.15,,,,,,,,,,"115,403.85",,,,,,,,,,,,,,"186,526.60",,,,,,,,,,,,,,,,,,,,,,,N,N,N
1006132,110002025736,AUTUMN HILLS RECYCLING AND DISPOSAL FACILITY,ZEELAND,MI,49464,700 56TH AVENUE,OTTAWA,42.78,-85.92,562212,"C,HH",Waste,"89,570.91",333.54,"89,236.73",0.63,,,,,,,,,,334.46,,,,,,,,,,,,,,,,,,,,,,,,,,,,,,,,,"89,236.44",,,,N,N,N
1005770,110056954096,AUX SABLE LIQUID PRODUCTS INC,MORRIS,IL,60450,6155 EAST U.S. ROUTE 6,GRUNDY COUNTY,41.41,-88.30,211112,"C,MM-IMP,NN-FRAC,W-PROC","Natural Gas and Natural Gas Liquids Suppliers,Petroleum Product Suppliers,Petroleum and Natural Gas Systems","248,504.59","243,105.20","5,263.50",135.89,,,,,,,,,,"208,586.77",,,,,,,,,,,,,,,,,,,39917.818,,,,,,,,,,,,,,,,,,N,N,N
1003033,110032601432,AVA LANDFILL,AVA,NY,13303,7044 ST RTE 294,ONEIDA,43.46,-75.41,562212,"C,HH",Waste,"62,558.90",86.60,"62,472.00",0.30,,,,,,,,,,86.90,,,,,,,,,,,,,,,,,,,,,,,,,,,,,,,,,"62,472.00",,,,N,N,N
1003328,110043803630,AVENAL REGIONAL LANDFILL,AVENAL,CA,93204,1200 Skyline Blvd,KINGS COUNTY,36.01,-120.12,562212,HH,Waste,"94,270.00",,"94,270.00",,,,,,,,,,,,,,,,,,,,,,,,,,,,,,,,,,,,,,,,,,,,"94,270.00",,,,N,N,N
1003082,110043808154,AVINGER GAS PLANT,Avinger,TX,75630,2339 Avinger Cut Off Road,CASS,32.85,-94.59,211112,"C,W-PROC",Petroleum and Natural Gas Systems,"36,372.13","32,980.40","3,373.25",18.48,,,,,,,,,,"33,005.68",,,,,,,,,,,,,,,,,,,3366.45,,,,,,,,,,,,,,,,,,N,N,N
1007682,110001150227,AZUSA LAND RECLAMATION CO INC INERT LF,AZUSA,CA,91702,1211 W GLADSTONE ST,LOS ANGELES,34.11,-117.93,562212,"C,HH",Waste,"111,587.92","7,558.00","104,025.75",4.17,,,,,,,,,,"7,565.67",,,,,,,,,,,,,,,,,,,,,,,,,,,,,,,,,"104,022.25",,,,N,N,N
1000378,110000471043,Abbott Laboratories,Casa Grande,AZ,85193,1250 West Maricopa Highway,PINAL COUNTY,32.89,-111.78,311514,C,Other,"25,899.10","25,872.80",12.00,14.30,,,,,,,,,,"25,899.10",,,,,,,,,,,,,,,,,,,,,,,,,,,,,,,,,,,,,N,N,N
1003205,110020667358,Abbott Nutrition - A Division of Abbott Laboratories,ALTAVISTA,VA,24517,1518 MAIN STREET,CAMPBELL COUNTY,37.13,-79.27,311514,C,Other,"26,587.70","26,560.30",12.50,14.90,,,,,,,,,,"26,587.70",,,,,,,,,,,,,,,,,,,,,,,,,,,,,,,,,,,,,N,N,N
1010630,110054611979,Aberdeen Generating Station,Aberdeen,SD,57401,421 30th Ave SW,BROWN,45.46,-98.50,221112,"C,D",Power Plants,"3,245.46","3,236.50",3.00,5.96,,,,,,,,,,443.09,"2,802.37",,,,,,,,,,,,,,,,,,,,,,,,,,,,,,,,,,,,N,N,N
1007357,110034168656,Abilene Regional Landfill,Abilene,TX,79601,,TAYLOR,32.53,-99.75,562212,HH,Waste,"63,332.50",,"63,332.50",,,,,,,,,,,,,,,,,,,,,,,,,,,,,,,,,,,,,,,,,,,,"63,332.50",,,,N,N,N
1001347,110012534766,Acadia Power Station,EUNICE,LA,70535,30385 CROWLEY EUNICE HWY,Acadia,30.43,-92.41,221112,D,Power Plants,"1,871,462.76","1,869,562.30",867.00,"1,033.46",,,,,,,,,,,"1,871,462.76",,,,,,,,,,,,,,,,,,,,,,,,,,,,,,,,,,,,N,N,N
1008234,110070081980,Accident Station,Accident,MD,21520,196 Texas Eastern Drive,GARRETT COUNTY,39.63,-79.34,486210,"C,W-UNSTG",Petroleum and Natural Gas Systems,"19,276.99","14,499.40","4,769.25",8.34,,,,,,,,,,"14,509.24",,,,,,,,,,,,,,,,,,,,,4767.75,,,,,,,,,,,,,,,,N,N,N
1000125,110024408256,Ackerman Combined Cycle,ACKERMAN,MS,39735,2510 PENSACOLA ROAD,Choctaw,33.38,-89.20,221112,"C,D",Power Plants,"1,088,594.02","1,087,488.70",504.25,601.07,,,,,,,,,,156.20,"1,088,437.82",,,,,,,,,,,,,,,,,,,,,,,,,,,,,,,,,,,,N,N,N
1003446,110018855041,Ada County Solid Waste Management,Boise,ID,83714,10300 Seaman's Gulch Road,ADA COUNTY,43.71,-116.28,562212,"C,HH",Waste,"3,131.15",278.80,"2,851.75",0.60,,,,,,,,,,279.65,,,,,,,,,,,,,,,,,,,,,,,,,,,,,,,,,"2,851.50",,,,N,N,N
1000603,110043799743,Addis Carbon Black Plant,Addis,LA,70710,5221 Sid Richardson Road,WEST BATON ROUGE PARISH,30.33,-91.28,325182,"C,X",Chemicals,"337,816.21","337,805.00",5.25,5.96,,,,,,,,,,"11,177.21",,,,,,,,,,,,,,,,,,,,,,,,"326,639.00",,,,,,,,,,,,,N,N,N
1000089,110038495768,AdvanSix Resins & Chemicals LLC,PHILADELPHIA,PA,19137,2501 MARGARET STREET,Philadelphia,40.01,-75.07,325192,C,Chemicals,"145,446.85","145,296.70",68.50,81.65,,,,,,,,,,"145,446.85",,,,,,,,,,,,,,,,,,,,,,,,,,,,,,,,,,,,,N,N,N
1005068,110056958608,Advanced Graphite Materials LLC,ANMOORE,WV,26323,2698 PHILIPPI PIKE,HARRISON COUNTY,39.25,-80.29,335991,C,Other,"25,573.00","25,546.70",12.00,14.30,,,,,,,,,,"25,573.00",,,,,,,,,,,,,,,,,,,,,,,,,,,,,,,,,,,,,N,N,N
1010185,110022533070,Advanced Magnesium Alloys Corporation,Anderson,IN,46013,1820 E. 32nd st.,MADISON COUNTY,40.09,-85.66,331492,T,Metals,"100,160.40",,,,,,"100,160.40",,,,,,,,,,,,,,,,,,,,,,"100,160.40",,,,,,,,,,,,,,,,,,,,,,N,N,N
1006553,110001234030,"Advanced Tri-Gen Power Systems, LLC",Mossville,IL,61552,1823 East Neal Lane,PEORIA COUNTY,40.84,-89.56,221112,C,Power Plants,"117,987.56","117,865.90",55.50,66.16,,,,,,,,,,"117,987.56",,,,,,,,,,,,,,,,,,,,,,,,,,,,,,,,,,,,,N,N,N
1012089,,"Aemetis Advanced Fuels Keyes, Inc.",Ceres,CA,95307,4209 Jessup Road,,37.55,-120.92,325193,C,Other,"71,448.08","71,374.10",33.75,40.23,,,,,,,,,,"71,448.08",,,,,,,,,,,,,,,,,,,,,,,,,,,,,,,,,,,,,N,N,N
1002316,110043804425,Aera Energy 25 Hill,Maricopa,CA,93252,29235 Highway 33,KERN,35.09,-119.41,211111,C,Petroleum and Natural Gas Systems,"156,807.56","156,647.00",73.25,87.31,,,,,,,,,,"156,807.56",,,,,,,,,,,,,,,,,,,,,,,,,,,,,,,,,,,,,N,N,N
1002156,110043792483,Aera Energy Alberta Finley Shale,Fellows,CA,93224,25401 Highway 33,KERN COUNTY,35.23,-119.58,211111,C,Petroleum and Natural Gas Systems,"196,441.76","196,239.00",92.50,110.26,,,,,,,,,,"196,441.76",,,,,,,,,,,,,,,,,,,,,,,,,,,,,,,,,,,,,N,N,N
1006844,110070081958,Aera Energy Anderson Fitzgerald,McKittrick,CA,93251,59231 Main Camp Road,KERN,35.30,-119.74,211111,C,Petroleum and Natural Gas Systems,"63,930.76","63,865.00",30.00,35.76,,,,,,,,,,"63,930.76",,,,,,,,,,,,,,,,,,,,,,,,,,,,,,,,,,,,,N,N,N
1006845,110043799752,Aera Energy Belridge,McKittrick,CA,93251,59231 Main Camp Road,KERN,35.45,-119.72,211111,"C,NN-FRAC,W-PROC","Natural Gas and Natural Gas Liquids Suppliers,Petroleum and Natural Gas Systems","1,341,930.67","1,340,017.70","1,163.50",749.47,,,,,,,,,,"1,332,335.48",,,,,,,,,,,,,,,,,,,9595.19,,,,,,,,,,,,,,,,,,N,N,N
1003702,110043802757,Aera Energy Buena Fe,Maricopa,CA,93252,29235 Highway 33,KERN,35.09,-119.41,211111,C,Petroleum and Natural Gas Systems,"24,300.81","24,275.60",11.50,13.71,,,,,,,,,,"24,300.81",,,,,,,,,,,,,,,,,,,,,,,,,,,,,,,,,,,,,N,N,N
1002315,110043797308,Aera Energy Calso,McKittrick,CA,93251,59231 Main Camp Road,KERN,35.30,-119.74,211111,C,Petroleum and Natural Gas Systems,"40,374.35","40,332.70",19.00,22.65,,,,,,,,,,"40,374.35",,,,,,,,,,,,,,,,,,,,,,,,,,,,,,,,,,,,,N,N,N
1006405,110010484911,Aera Energy Coalinga,Coalinga,CA,93210,29010 Shell Road,FRESNO COUNTY,36.24,-120.32,211111,C,Petroleum and Natural Gas Systems,"226,997.94","226,763.40",107.00,127.54,,,,,,,,,,"226,997.94",,,,,,,,,,,,,,,,,,,,,,,,,,,,,,,,,,,,,N,N,N
1005790,110043793543,Aera Energy Lost Hills,McKittrick,CA,93251,59231 Main Camp Road,KERN,35.30,-119.74,211111,C,Petroleum and Natural Gas Systems,"198,452.35","198,247.40",93.50,111.45,,,,,,,,,,"198,452.35",,,,,,,,,,,,,,,,,,,,,,,,,,,,,,,,,,,,,N,N,N
1006914,110043793552,Aera Energy MOCO,Maricopa,CA,93252,29235 Highway 33,KERN,35.09,-119.41,211111,C,Petroleum and Natural Gas Systems,"416,432.28","416,002.10",196.25,233.93,,,,,,,,,,"416,432.28",,,,,,,,,,,,,,,,,,,,,,,,,,,,,,,,,,,,,N,N,N
1005635,110043793552,Aera Energy Metson,Maricopa,CA,93252,29235 Highway 33,KERN,35.09,-119.41,211111,C,Petroleum and Natural Gas Systems,"44,381.18","44,335.70",20.75,24.73,,,,,,,,,,"44,381.18",,,,,,,,,,,,,,,,,,,,,,,,,,,,,,,,,,,,,N,N,N
1006846,110001175530,Aera Energy San Ardo,San Ardo,CA,93450,66893 Sargent Road,MONTEREY COUNTY,35.95,-120.86,211111,C,Petroleum and Natural Gas Systems,"163,003.54","162,835.30",76.75,91.49,,,,,,,,,,"163,003.54",,,,,,,,,,,,,,,,,,,,,,,,,,,,,,,,,,,,,N,N,N
1002155,110028134873,Aera Energy Ventura,Ventura,CA,93001,3382 N. Ventura Avenue,VENTURA,34.31,-119.29,211111,C,Petroleum and Natural Gas Systems,"14,315.40","14,300.60",6.75,8.05,,,,,,,,,,"14,315.40",,,,,,,,,,,,,,,,,,,,,,,,,,,,,,,,,,,,,N,N,N
1009944,110043792483,Aera Energy Wier Gore Maxwell,Fellows,CA,93224,25401 Highway 33,KERN COUNTY,35.23,-119.58,211111,C,Petroleum and Natural Gas Systems,"23,006.46","22,982.90",10.75,12.81,,,,,,,,,,"23,006.46",,,,,,,,,,,,,,,,,,,,,,,,,,,,,,,,,,,,,N,N,N
1006556,110007007416,Afton Generating Station,LA MESA,NM,88044,10100 WEST AFTON ROAD,Dona Ana,32.11,-106.85,221112,"C,D",Power Plants,"198,081.92","197,880.80",91.75,109.37,,,,,,,,,,789.55,"197,292.37",,,,,,,,,,,,,,,,,,,,,,,,,,,,,,,,,,,,N,N,N
1002365,110000414061,Ag Processing Inc,Sergeant Bluff,IA,51054,2753 Port Neal Circle,WOODBURY COUNTY,42.31,-96.36,311222,C,Other,"35,817.11","35,779.50",16.75,20.86,,,,,,,,,,"35,817.11",,,,,,,,,,,,,,,,,,,,,,,,,,,,,,,,,,,,,N,N,N
1011305,110040608205,Agri-Mark,Middlebury,VT,05753,869 Exchange St,ADDISON COUNTY,44.03,-73.17,311513,C,Other,"24,735.10","24,735.10",,,,,,,,,,,,"24,735.10",,,,,,,,,,,,,,,,,,,,,,,,,,,,,,,,,,,,,N,N,N
1012864,110070126718,Agropur,Jeorme,ID,83338,547 West Nez Perce,JEROME COUNTY,42.71,-114.53,311513,C,Other,"25,768.85","25,742.00",12.25,14.60,,,,,,,,,,"25,768.85",,,,,,,,,,,,,,,,,,,,,,,,,,,,,,,,,,,,,N,N,N
1007206,110000780851,Agua Fria Generating Station,GLENDALE,AZ,85303,7302 W NORTHERN AVE,Maricopa,33.55,-112.22,221112,"C,D",Power Plants,"41,628.64","41,585.90",19.50,23.24,,,,,,,,,,"2,729.24","38,899.40",,,,,,,,,,,,,,,,,,,,,,,,,,,,,,,,,,,,N,N,N
1000423,110028012237,Agua Mansa Power,COLTON,CA,92324,2040 AGUA MANSA ROAD,San Bernardino,34.04,-117.36,221112,D,Power Plants,"24,003.01","23,978.90",11.00,13.11,,,,,,,,,,,"24,003.01",,,,,,,,,,,,,,,,,,,,,,,,,,,,,,,,,,,,N,N,N
1007273,110000422043,Ahlstrom - Munksjo - Mosinee Plant,MOSINEE,WI,54455,100 MAIN STREET,MARATHON,44.79,-89.70,322121,"AA,C,TT","Pulp and Paper,Waste","165,673.56","153,145.10","8,209.25","4,319.21",,,,,,,,,"239,280.60","139,723.30",,,,,,,,,,,,,,,,,,,,,,,,,,,"20,089.26",,,,,,,,,"5,861.00",N,N,N
1004045,110000420884,Ahlstrom-Munksjo NA SPECIALTY SOLUTIONS,DEPERE,WI,54115,200 MAIN AVE,BROWN COUNTY,44.45,-88.07,322121,C,Pulp and Paper,"93,353.91","92,615.80",270.25,467.86,,,,,,,,,,"93,353.91",,,,,,,,,,,,,,,,,,,,,,,,,,,,,,,,,,,,,N,N,N
1005991,110000422383,Ahlstrom-Munksjo NA Specialty Solutions LLC,RHINELANDER,WI,54501,515 W DAVENPORT ST,ONEIDA COUNTY,45.64,-89.42,322121,C,Pulp and Paper,"255,028.91","253,404.10",598.50,"1,026.31",,,,,,,,,,"255,028.91",,,,,,,,,,,,,,,,,,,,,,,,,,,,,,,,,,,,,N,N,N
1007253,110043973055,Air Liquide Hydrogen Plant,Anacortes,WA,98221,8581 South Texas Road,SKAGIT COUNTY,48.47,-122.55,325120,P,Chemicals,"63,355.80","63,355.80",,,,,,,,,,,,,,,,,,,,,,,"63,355.80",,,,,,,,,,,,,,,,,,,,,,,,,,N,N,N
1006711,110000462758,Air Liquide Large Industries US - SMR,Pasadena,TX,77507,11400 Bay Area Blvd.,HARRIS COUNTY,29.62,-95.05,325120,P,Chemicals,"535,907.40","535,907.40",,,,,,,,,,,,,,,,,,,,,,,"535,907.40",,,,,,,,,,,,,,,,,,,,,,,,,,N,N,N
1004442,110041624873,Air Products LLC - Corpus Christi,Corpus Christi,TX,78407,5401 Up River Road,NUECES,27.81,-97.46,325120,P,Chemicals,"184,717.00","184,717.00",,,,,,,,,,,,,,,,,,,,,,,"184,717.00",,,,,,,,,,,,,,,,,,,,,,,,,,N,N,N
1006943,110043799958,Air Products LLC - Pasadena SMR,Pasadena,TX,77506,1435 Highway 225,HARRIS COUNTY,29.72,-95.19,325120,P,Chemicals,"606,374.00","606,374.00",,,,,,,,,,,,,,,,,,,,,,,"606,374.00",,,,,,,,,,,,,,,,,,,,,,,,,,N,N,N
1003160,110000463622,Air Products La Porte Facility,La Porte,TX,77571,10202 Strang Rd,HARRIS,29.70,-95.07,325120,"C,D",Power Plants,"105,855.79","105,770.30",39.00,46.49,,,,,,,,,,"42,460.82","63,394.96",,,,,,,,,,,,,,,,,,,,,,,,,,,,,,,,,,,,N,N,N
1006402,110043802819,Air Products Port Arthur Facility,Port Arthur,TX,77640,1801 S Gulfway Dr within Valero Refinery,JEFFERSON,29.86,-93.97,325120,"C,P,PP","Chemicals,Suppliers of CO2","2,464,422.77","2,463,770.00",291.00,361.77,,,,,,,,,,"656,445.77",,,,,,,,,,,"1,807,977.00",,,,,,,,,,,,,,,,,,,,,,,,,,N,Y,N
1010506,110015670521,Air Products and Chemicals Inc. Luling SMR Facility,Luling,LA,70070,12501 River Road B,ST. CHARLES PARISH,29.92,-90.35,325120,P,Chemicals,"608,915.00","608,915.00",,,,,,,,,,,,,,,,,,,,,,,"608,915.00",,,,,,,,,,,,,,,,,,,,,,,,,,N,N,N
1010625,110054838459,Air Products and Chemicals Inc./Detroit Hydrogen Facility Marathon Refinery,Detroit,MI,48217,1025 Oakwood Blvd,WAYNE COUNTY,42.29,-83.16,325120,P,Chemicals,"73,654.80","73,654.80",,,,,,,,,,,,,,,,,,,,,,,"73,654.80",,,,,,,,,,,,,,,,,,,,,,,,,,N,N,N
1005573,110004721515,"Air Products and Chemicals, Inc.",Cincinnati,OH,45232,4900 Este Avenue,HAMILTON COUNTY,39.18,-84.50,325120,"C,P",Chemicals,"23,886.67","23,877.90",4.00,4.77,,,,,,,,,,"8,428.77",,,,,,,,,,,"15,457.90",,,,,,,,,,,,,,,,,,,,,,,,,,N,N,N
1007116,110039498674,"Air Products and Chemicals, Inc.",Calvert City,KY,42029,412 North Main Street,MARSHALL,37.04,-88.35,325199,C,Chemicals,"2,582.74","2,580.00",1.25,1.49,,,,,,,,,,"2,582.74",,,,,,,,,,,,,,,,,,,,,,,,,,,,,,,,,,,,,N,N,N
1004586,110041624472,"Air Products and Chemicals, Inc. - BR SMR","Baton Rouge, La",LA,70805,2 Gulf States Utility Rd,EAST BATON ROUGE PARISH,30.49,-91.19,325120,P,Chemicals,"724,351.00","724,351.00",,,,,,,,,,,,,,,,,,,,,,,"724,351.00",,,,,,,,,,,,,,,,,,,,,,,,,,N,N,N
1005852,110000595339,"Air Products and Chemicals, Inc. - Joliet, IL H2 Plant",Channahon,IL,60410,25915 S.E. Frontage Road (c/o ExxonMobil),WILL COUNTY,41.41,-88.18,325120,P,Chemicals,"103,681.20","103,681.20",,,,,,,,,,,,,,,,,,,,,,,"103,681.20",,,,,,,,,,,,,,,,,,,,,,,,,,N,N,N
1001685,110070081808,Air Quality Mine,Vincennes,IN,47591,3609 South Hart Street,KNOX COUNTY,38.63,-87.44,212111,"C,FF",Other,"148,886.70",48.20,"148,838.50",,,,,,,,,,,48.20,,,,,,,,,,,,,,,,,,,,,,,,,,,,,,,"148,838.50",,,,,,N,N,N
1001919,110035869165,"Ajinomoto Animal Nutrition North America, Inc.",EDDYVILLE,IA,52553,1116 Highway 137,MONROE COUNTY,41.14,-92.65,311119,C,Other,"110,569.78","110,455.80",52.00,61.98,,,,,,,,,,"110,569.78",,,,,,,,,,,,,,,,,,,,,,,,,,,,,,,,,,,,,N,N,N
1010624,110002003153,Akutan Seafood Processing Facility,Akutan,AK,99553,1 Salmon Lane,ALEUTIANS EAST,54.13,-165.79,311712,C,Other,"50,747.61","50,558.10",57.50,132.01,,,,,,,,,484.00,"50,747.61",,,,,,,,,,,,,,,,,,,,,,,,,,,,,,,,,,,,,N,N,N
1010593,110000741243,"Akzo Nobel Functional Chemicals, LLC",Axis,AL,36505,13440 Highway 43 North,MOBILE COUNTY,30.97,-88.02,325188,C,Chemicals,"26,069.20","26,041.80",12.50,14.90,,,,,,,,,,"26,069.20",,,,,,,,,,,,,,,,,,,,,,,,,,,,,,,,,,,,,N,N,N
1006235,110002083922,Aladdin Manufacturing - Glasgow facility,GLASGOW,VA,24555,404 ANDERSON STREET,ROCKBRIDGE COUNTY,37.64,-79.45,314110,C,Other,"29,606.39","29,475.30",48.25,82.84,,,,,,,,,,"29,606.39",,,,,,,,,,,,,,,,,,,,,,,,,,,,,,,,,,,,,N,N,N
1005138,110043799609,Alamance County Landfill,Graham,NC,27253,2701 Austin Quarter Rd.,ALAMANCE COUNTY,35.93,-79.29,562212,HH,Waste,"109,351.75",,"109,351.75",,,,,,,,,,,,,,,,,,,,,,,,,,,,,,,,,,,,,,,,,,,,"109,351.75",,,,N,N,N
1007208,110000860355,Alamo San Antonio Cement Plant,San Antonio,TX,78266,6055 West Green Mountain Road,BEXAR COUNTY,29.61,-98.37,327999,H,Minerals,"788,394.16","786,127.30",830.50,"1,436.36",,,,,,,,,,,,,,,"788,394.16",,,,,,,,,,,,,,,,,,,,,,,,,,,,,,,,N,N,N
