Facility Id,FRS Id,Facility Name,City,State,Zip Code,Address,County,Latitude,Longitude,Primary NAICS Code,Industry Type (subparts),Industry Type (sectors),Total reported direct emissions,CO2 emissions (non-biogenic) ,Methane (CH4) emissions ,Nitrous Oxide (N2O) emissions ,HFC emissions,PFC emissions,SF6 emissions ,NF3 emissions,Other Fully Fluorinated GHG emissions,HFE emissions,Very Short-lived Compounds emissions,Other GHGs (metric tons CO2e),Biogenic CO2 emissions (metric tons),Stationary Combustion,Electricity Generation,Adipic Acid Production,Aluminum Production,Ammonia Manufacturing,Cement Production,Electronics Manufacture,Ferroalloy Production,Fluorinated GHG Production,Glass Production,HCFC–22 Production from HFC–23 Destruction,Hydrogen Production,Iron and Steel Production,Lead Production,Lime Production,Magnesium Production,Miscellaneous Use of Carbonates,Nitric Acid Production,Petroleum and Natural Gas Systems – Offshore Production,Petroleum and Natural Gas Systems – Processing,Petroleum and Natural Gas Systems – Transmission/Compression,Petroleum and Natural Gas Systems – Underground Storage,Petroleum and Natural Gas Systems – LNG Storage,Petroleum and Natural Gas Systems – LNG Import/Export,Petrochemical Production,Petroleum Refining,Phosphoric Acid Production,Pulp and Paper Manufacturing,Silicon Carbide Production,Soda Ash Manufacturing,Titanium Dioxide Production,Underground Coal Mines,Zinc Production,Municipal Landfills,Industrial Wastewater Treatment,Manufacture of Electric Transmission and Distribution Equipment,Industrial Waste Landfills,Is some CO2 collected on-site and used to manufacture other products and therefore not emitted from the affected manufacturing process unit(s)? (as reported under Subpart G or S),"Is some CO2 reported as emissions from the affected manufacturing process unit(s) under Subpart AA, G or P collected and transferred off-site or injected (as reported under Subpart PP)?",Does the facility employ continuous emissions monitoring? 
1004377,110043803578,121 REGIONAL DISPOSAL FACILITY,MELISSA,TX,75454,3820 SAM RAYBURN HIGHWAY,COLLIN COUNTY,33.30,-96.54,562212,HH,Waste,518680.25,,518680.25,,,,,,,,,,,,,,,,,,,,,,,,,,,,,,,,,,,,,,,,,,,,518680.25,,,,N,N,N
1000112,110071159492,23rd and 3rd,BROOKLYN,NY,11232,730 3rd Avenue,Kings,40.66,-74.00,221112,"C,D",Power Plants,44658.384,44612.9,20.75,24.734,,,,,,,,,,63.2,44595.184,,,,,,,,,,,,,,,,,,,,,,,,,,,,,,,,,,,,N,N,N
1003742,110038508335,31st Street Landfill,WESTCHESTER,IL,60154,11700 W 31ST ST,COOK COUNTY,41.83,-87.92,562212,"C,HH",Waste,18925.4,246.9,18678.5,,,,,,,,,,,246.9,,,,,,,,,,,,,,,,,,,,,,,,,,,,,,,,,18678.5,,,,N,N,N
1003188,110000599273,3M BROWNWOOD,BROWNWOOD,TX,76801,4501 HIGHWAY 377 SOUTH,BROWN COUNTY,31.67,-99.00,326113,"C,N",Minerals,30571.636,30540.4,14.25,16.986,,,,,,,,,,30452.736,,,,,,,,,118.9,,,,,,,,,,,,,,,,,,,,,,,,,,,,N,N,N
1005043,110071160392,3M CO,MAPLEWOOD,MN,55144,,RAMSEY COUNTY,44.95,-93.00,541715,C,Other,106258.176,106144,51,63.176,,,,,,,,,,106258.176,,,,,,,,,,,,,,,,,,,,,,,,,,,,,,,,,,,,,N,N,N
1003739,110000589159,3M CO - GUIN,GUIN,AL,35563,6675 US HIGHWAY 43,MARION COUNTY,33.97,-87.90,326113,"C,N",Minerals,29770.94,29740.8,13.75,16.39,,,,,,,,,,29055.24,,,,,,,,,715.7,,,,,,,,,,,,,,,,,,,,,,,,,,,,N,N,N
1007698,110000421776,3M CO - WAUSAU DOWNTOWN,WAUSAU,WI,54401,144 ROSECRANS ST,MARATHON COUNTY,44.95,-89.64,212313,C,Other,45435.226,45378.1,23.75,33.376,,,,,,,,,,45435.226,,,,,,,,,,,,,,,,,,,,,,,,,,,,,,,,,,,,,N,N,N
1004206,110000367567,3M COMPANY,DECATUR,AL,35609,1400 STATE DOCKS RD.,MORGAN COUNTY,34.64,-87.03,325211,"C,L,OO","Chemicals,Industrial Gas Suppliers",46652.13423,44949.3,21.25,25.33,74,,,,,,2.254232,1580,,44995.88,,,,,,,,1656.254232,,,,,,,,,,,,,,,,,,,,,,,,,,,,,N,N,N
1006665,110013886875,3M CORDOVA,CORDOVA,IL,61242,22614 ROUTE 84 NORTH,ROCK ISLAND COUNTY,41.76,-90.28,325998,"C,L,OO","Chemicals,Industrial Gas Suppliers",766971.8816,30191.8,14.5,17.582,29486.833,510654.755,1064.76,2524.96,122475.55,7628.4216,1.72,62911,,30223.882,,,,,,,,736747.9996,,,,,,,,,,,,,,,,,,,,,,,,,,,,,N,N,N
1004836,110000423667,3M Cottage Grove Center - Site,Cottage Grove,MN,55016,10746 Innovation Rd,WASHINGTON COUNTY,44.79,-92.91,325998,"C,L,N,OO","Chemicals,Industrial Gas Suppliers,Minerals",55977.45528,28598.2,18,44.998,373.1974,1942.402,,,20486,117.5017,8.756183,4388.4,2514.6,27550.598,,,,,,,,27316.25728,1110.6,,,,,,,,,,,,,,,,,,,,,,,,,,,,N,N,N
1003408,110071161417,3M INDUSTRIAL MINERAL PRODUCTS DIVISION,LITTLE ROCK,AR,72206,3110 WALTERS DRIVE,PULASKI COUNTY,34.71,-92.25,212399,C,Other,30635.384,30593.9,16.75,24.734,,,,,,,,,,30635.384,,,,,,,,,,,,,,,,,,,,,,,,,,,,,,,,,,,,,N,N,N
1004914,110000425059,3M MAGNETIC TAPE MANUFACTURING DIVISION,HUTCHINSON,MN,55350,905-915 ADAMS STREET SOUTHEAST,MCLEOD COUNTY,44.88,-94.36,326199,C,Other,39937.9,39896.8,18.75,22.35,,,,,,,,,,39937.9,,,,,,,,,,,,,,,,,,,,,,,,,,,,,,,,,,,,,N,N,N
1004804,110000443805,3M NEVADA PLANT,NEVADA,MO,64772,2120 E. AUSTIN,VERNON COUNTY,37.83,-94.33,326113,C,Other,33839.77,33804.4,16,19.37,,,,,,,,,,33839.77,,,,,,,,,,,,,,,,,,,,,,,,,,,,,,,,,,,,,N,N,N
1013282,,3M Pittsboro,Moncure,NC,27559,4191 Hwy 87 South,,35.66,-79.18,327999,C,Minerals,25968.852,25942,12.25,14.602,,,,,,,,,,25968.852,,,,,,,,,,,,,,,,,,,,,,,,,,,,,,,,,,,,,N,N,N
1001106,110040862527,48th Street Peaking Station,HOLLAND,MI,49423,491 E 48TH ST,Allegan,42.76,-86.09,221112,"C,D",Power Plants,13841,13827.3,6.25,7.45,,,,,,,,,,30.1,13810.9,,,,,,,,,,,,,,,,,,,,,,,,,,,,,,,,,,,,N,N,N
1004680,110013945062,58TH ST LF (MAIN COUNTY LF),MIAMI,FL,33178,8831 NW 58TH ST,MIAMI-DADE COUNTY,25.83,-80.35,562212,HH,Waste,67620,,67620,,,,,,,,,,,,,,,,,,,,,,,,,,,,,,,,,,,,,,,,,,,,67620,,,,N,N,N
1000766,110064649901,59th Street,NEW YORK,NY,10019,850 12TH AVE,New York,40.77,-73.99,221330,C,Power Plants,224910.106,224650,112,148.106,,,,,,,,,,224910.106,,,,,,,,,,,,,,,,,,,,,,,,,,,,,,,,,,,,,N,N,N
1007733,110041047505,69TH ST WWTP,HOUSTON,TX,77020,2525 SSGT MACARIO GARCIA DR,HARRIS COUNTY,29.76,-95.30,221320,C,Other,24201.708,24176.5,11.5,13.708,,,,,,,,,,24201.708,,,,,,,,,,,,,,,,,,,,,,,,,,,,,,,,,,,,,N,N,N
1000767,110070834991,74th Street,NEW YORK,NY,10021,506 E 75TH ST,New York,40.77,-73.95,221330,C,Power Plants,254385.114,254098.8,124.5,161.814,,,,,,,,,,254385.114,,,,,,,,,,,,,,,,,,,,,,,,,,,,,,,,,,,,,N,N,N
1001033,110070116733,A B Brown Generating Station,MOUNT VERNON,IN,47620,8511 WELBORN ROAD,Posey,37.91,-87.72,221112,D,Power Plants,2789540.744,2767288.8,8140.75,14111.194,,,,,,,,,,,2789540.744,,,,,,,,,,,,,,,,,,,,,,,,,,,,,,,,,,,,N,N,Y
1012058,110071161547,"A.C.M.S., Inc.",Lake Panasoffkee,FL,33538,835 CR 529,SUMTER COUNTY,28.74,-82.09,562212,HH,Waste,139492.5,,139492.5,,,,,,,,,,,,,,,,,,,,,,,,,,,,,,,,,,,,,,,,,,,,139492.5,,,,N,N,N
1013527,,A.J. Mihm Generating Station,Pelkie,MI,49958,816017 Sarya Road,,46.79,-88.62,221112,C,Power Plants,99392.676,99290.2,46.75,55.726,,,,,,,,,,99392.676,,,,,,,,,,,,,,,,,,,,,,,,,,,,,,,,,,,,,N,N,N
1002983,110018042562,ABBOTT PARK FACILITY,ABBOTT PARK,IL,60064,100 ABBOTT PARK RD,LAKE COUNTY,42.30,-87.89,424210,C,Other,54130.096,54074.2,25.5,30.396,,,,,,,,,,54130.096,,,,,,,,,,,,,,,,,,,,,,,,,,,,,,,,,,,,,N,N,N
1007514,110007806188,ABBVIE LTD.,BARCELONETA,PR,00617,RD 2 KM 58.0,BARCELONETA MUNICIPIO,18.43,-66.57,325412,C,Chemicals,86980.038,86701.3,83.25,195.488,,,,,,,,,,86980.038,,,,,,,,,,,,,,,,,,,,,,,,,,,,,,,,,,,,,N,N,N
1004511,110000366817,ABC COKE,TARRANT,AL,35217,ONE RAILROAD AVENUE,JEFFERSON COUNTY,33.58,-86.78,324199,"C,Q",Metals,177086.876,176933.5,45.5,107.876,,,,,,,,,,165579.648,,,,,,,,,,,,11507.228,,,,,,,,,,,,,,,,,,,,,,,,,N,N,N
1005353,110038367228,ABERDEEN ENERGY LLC,MINA,SD,57451,13435 370TH AVENUE,EDMUNDS COUNTY,45.44,-98.79,325193,C,Other,193369.872,193170.4,91,108.472,,,,,,,,,,193369.872,,,,,,,,,,,,,,,,,,,,,,,,,,,,,,,,,,,,,N,N,N
1006971,110064337123,ABERDEEN PROVING GROUND-Aberdeen Area & Edgewood Area,APG,MD,21005,4304 Susquehanna Ave,HARFORD COUNTY,39.48,-76.14,928110,C,Other,108122.626,107978.6,58.5,85.526,,,,,,,,,,108122.626,,,,,,,,,,,,,,,,,,,,,,,,,,,,,,,,,,,,,N,N,N
1002627,110027236621,ABSOLUTE ENERGY LLC,ST ANSGAR (MONA),IA,50472,1372 STATELINE ROAD,MITCHELL COUNTY,43.50,-92.92,325193,"C,II","Other,Waste",140703.258,140442,180.5,80.758,,,,,,,,,474.9,140589.758,,,,,,,,,,,,,,,,,,,,,,,,,,,,,,,,,,113.5,,,N,N,N
1006529,110013921435,ACADIA PARISH POLICE JURY - ACADIA PARISH SANITARY LANDFILL,EGAN,LA,70531,611 PETAL RD,ACADIA PARISH,30.26,-92.53,562111,HH,Waste,53725.25,,53725.25,,,,,,,,,,,,,,,,,,,,,,,,,,,,,,,,,,,,,,,,,,,,53725.25,,,,N,N,N
1004761,110013812918,ACE ETHANOL LLC,STANLEY,WI,54768,815 WEST MAPLE STREET,CHIPPEWA COUNTY,44.96,-90.96,325193,"C,PP","Other,Suppliers of CO2",75591.916,75514.1,35.5,42.316,,,,,,,,,,75591.916,,,,,,,,,,,,,,,,,,,,,,,,,,,,,,,,,,,,,N,N,N
1005601,110007180709,ACME BRICK CO ELGIN PLANT,ELGIN,TX,78621,1776 OLD MCDADE RD,BASTROP COUNTY,30.33,-97.29,327120,C,Minerals,26165.752,26138.9,12.25,14.602,,,,,,,,,,26165.752,,,,,,,,,,,,,,,,,,,,,,,,,,,,,,,,,,,,,N,N,N
1005046,110007177722,ACME GYPSUM FACILITY,QUANAH,TX,79252,4164 HIGHWAY 285,HARDEMAN COUNTY,34.32,-99.82,327420,C,Minerals,39610.7,39569.6,18.75,22.35,,,,,,,,,,39610.7,,,,,,,,,,,,,,,,,,,,,,,,,,,,,,,,,,,,,N,N,N
1002731,110071161104,ADA COGENERATION,ADA,MI,49355,7575 FULTON STREET EAST,KENT COUNTY,42.93,-85.43,221112,C,Power Plants,81392.592,81308.2,38.5,45.892,,,,,,,,,,81392.592,,,,,,,,,,,,,,,,,,,,,,,,,,,,,,,,,,,,,N,N,N
1003752,110040089604,"ADA Carbon Solutions (Red River), LLC",Coushatta,LA,71019,201 Red River Mine Road,RED RIVER PARISH,32.01,-93.39,325998,C,Chemicals,172184.88,172179.4,2.5,2.98,,,,,,,,,,172184.88,,,,,,,,,,,,,,,,,,,,,,,,,,,,,,,,,,,,,N,N,Y
1003422,110008978552,ADKINS ENERGY LLC,LENA,IL,61048,4350 WEST GALENA ROAD,STEPHENSON COUNTY,42.36,-89.80,325193,C,Other,91352.056,91257.8,43,51.256,,,,,,,,,,91352.056,,,,,,,,,,,,,,,,,,,,,,,,,,,,,,,,,,,,,N,N,N
1002154,110013325507,ADM - MANKATO,MANKATO,MN,56001,2019 3RD AVENUE,BLUE EARTH COUNTY,44.19,-94.00,311225,C,Other,90584.588,90256.4,125.25,202.938,,,,,,,,,,90584.588,,,,,,,,,,,,,,,,,,,,,,,,,,,,,,,,,,,,,N,N,N
1006047,110010507503,ADM CORN PROCESSING,CEDAR RAPIDS,IA,52404,1350 WACONIA AVENUE SOUTHWEST,LINN COUNTY,41.92,-91.69,311221,"C,II","Other,Waste",3071299.446,3052061.1,8025.5,11212.846,,,,,,,,,10224.4,3069824.196,,,,,,,,,,,,,,,,,,,,,,,,,,,,,,,,,,1475.25,,,N,N,Y
1006208,110000415630,ADM CORN PROCESSING,CLINTON,IA,52732,1251 BEAVER CHANNEL PARKWAY,CLINTON COUNTY,41.82,-90.21,311221,"C,TT","Other,Waste",2088384.04,2071856.2,6260.25,10267.59,,,,,,,,,81905.6,2088126.04,,,,,,,,,,,,,,,,,,,,,,,,,,,,,,,,,,,,258,N,N,Y
1010610,110033021888,ADM Deerfield,Deerfield,MO,64741,17700 South Highway T,VERNON COUNTY,37.81,-94.59,311224,C,Other,40696.796,40654.6,19.25,22.946,,,,,,,,,,40696.796,,,,,,,,,,,,,,,,,,,,,,,,,,,,,,,,,,,,,N,N,N
1011855,110002319982,ADM Fostoria,Fostoria,OH,44830,608 FINDLAY ROAD,HANCOCK COUNTY,41.15,-83.43,311224,C,Other,29149.44,29119.3,13.75,16.39,,,,,,,,,,29149.44,,,,,,,,,,,,,,,,,,,,,,,,,,,,,,,,,,,,,N,N,N
1000376,110040894761,ADM QUINCY,QUINCY,IL,62305,2100 GARDNER EXPRESSWAY,ADAMS COUNTY,39.90,-91.41,311224,C,Other,109506.606,109328.7,74.5,103.406,,,,,,,,,,109506.606,,,,,,,,,,,,,,,,,,,,,,,,,,,,,,,,,,,,,N,N,N
1006080,110027360399,ADM SOUTHERN CELLULOSE PROD.IN,CHATTANOOGA,TN,37410,103 W 45TH ST,HAMILTON COUNTY,35.00,-85.32,322110,C,Pulp and Paper,26210.152,26183.3,12.25,14.602,,,,,,,,,,26210.152,,,,,,,,,,,,,,,,,,,,,,,,,,,,,,,,,,,,,N,N,N
1000034,110067425799,ADM SOYBEAN PROCESSING - DES MOINES,DES MOINES,IA,50313,1935 EAST EUCLID AVENUE,POLK COUNTY,41.63,-93.58,311224,C,Other,149818.092,148756.9,389.5,671.692,,,,,,,,,,149818.092,,,,,,,,,,,,,,,,,,,,,,,,,,,,,,,,,,,,,N,N,N
1011961,110012384561,ADM Valdosta,Valdosta,GA,31601,1841 Clay Road,LOWNDES COUNTY,30.83,-83.25,311224,C,Other,47154.982,46386.1,125.5,643.382,,,,,,,,,53926.7,47154.982,,,,,,,,,,,,,,,,,,,,,,,,,,,,,,,,,,,,,N,N,N
1001991,110071160847,ADRIAN LANDFILL,ADRIAN,MI,49221,1970 N OGDEN HWY,LENAWEE COUNTY,41.89,-84.06,562212,HH,Waste,6905,,6905,,,,,,,,,,,,,,,,,,,,,,,,,,,,,,,,,,,,,,,,,,,,6905,,,,N,N,N
1001633,110009059366,ADS-CEDAR HILL LANDFILL,RAGLAND,AL,35131,1319 NO BUSINESS CREEK ROAD,ST. CLAIR COUNTY,33.68,-86.25,562212,"C,HH",Waste,137465.812,,137445.25,20.562,,,,,,,,,5737.1,29.312,,,,,,,,,,,,,,,,,,,,,,,,,,,,,,,,,137436.5,,,,N,N,N
1001636,110013947453,ADS-PECAN ROW-EVERGREEN LANDFILLS,VALDOSTA,GA,31601,2995 WETHERINGTON LANE,LOWNDES COUNTY,30.81,-83.36,562212,HH,Waste,320648,,320648,,,,,,,,,,,,,,,,,,,,,,,,,,,,,,,,,,,,,,,,,,,,320648,,,,N,N,N
1006790,110071159539,ADS-STAR RIDGE LANDFILL,MOODY,AL,35004,3301 ACMAR ROAD,ST. CLAIR COUNTY,33.61,-86.51,562212,HH,Waste,145819,,145819,,,,,,,,,,,,,,,,,,,,,,,,,,,,,,,,,,,,,,,,,,,,145819,,,,N,N,N
1002094,110034159005,ADS/MCLEAN COUNTY LANDFILL,BLOOMINGTON,IL,61704,2105 W OAKLAND AVE,MCLEAN COUNTY,40.47,-89.03,562212,HH,Waste,7440,,7440,,,,,,,,,,,,,,,,,,,,,,,,,,,,,,,,,,,,,,,,,,,,7440,,,,N,N,N
1001845,110043581317,ADVANCED DISPOSAL CRANBERRY CREEK LANDFILL LLC,WISCONSIN RAPIDS,WI,54495,2510 ENGEL ROAD,WOOD COUNTY,44.41,-89.85,562212,"C,HH",Waste,36865.698,148.9,36716.5,0.298,,,,,,,,,42.4,149.198,,,,,,,,,,,,,,,,,,,,,,,,,,,,,,,,,36716.5,,,,N,N,N
1003038,110006726123,"ADVANCED DISPOSAL MAPLE HILL LANDFILL, LLC",MACON,MO,63552,31226 INTREPID ROAD,MACON COUNTY,39.73,-92.54,562212,"C,HH",Waste,15454.648,82.1,15372.25,0.298,,,,,,,,,,82.398,,,,,,,,,,,,,,,,,,,,,,,,,,,,,,,,,15372.25,,,,N,N,N
1006979,110017987589,ADVANCED DISPOSAL OAK RIDGE LANDFILL,BALWIN,MO,63021,1741 SULPHUR SPRING ROAD,ST. LOUIS COUNTY,38.56,-90.53,562212,HH,Waste,5324,,5324,,,,,,,,,,,,,,,,,,,,,,,,,,,,,,,,,,,,,,,,,,,,5324,,,,N,N,N
1001637,110012142733,ADVANCED DISPOSAL ORCHARD HILLS LANDFILL INC,DAVIS JUNCTION,IL,61020,8290 HIGHWAY 251,OGLE COUNTY,42.14,-89.09,562212,"C,HH",Waste,184687.6,69.6,184618,,,,,,,,,,,69.6,,,,,,,,,,,,,,,,,,,,,,,,,,,,,,,,,184618,,,,N,N,N
1006963,110018431320,ADVANCED DISPOSAL VALLEY VIEW LANDFILL INC,DECATUR,IL,62522,1363 BEAR RD,MACON COUNTY,39.82,-89.04,562212,"C,HH",Waste,29269.75,90,29179.75,,,,,,,,,,,90,,,,,,,,,,,,,,,,,,,,,,,,,,,,,,,,,29179.75,,,,N,N,N
1000627,110000342460,ADVANSIX INC - CHESTERFIELD PLANT,CHESTER,VA,23836,4101 BERMUDA HUNDRED RD,CHESTERFIELD COUNTY,37.34,-77.28,325211,C,Other,60337.412,60273.2,28.75,35.462,,,,,,,,,,60337.412,,,,,,,,,,,,,,,,,,,,,,,,,,,,,,,,,,,,,N,N,N
1000630,110070737782,ADVANSIX INCORPORATED - HOPEWELL,HOPEWELL,VA,23860,905 EAST RANDOLPH ROAD,HOPEWELL CITY,37.18,-77.16,325199,"C,G,PP","Chemicals,Suppliers of CO2",1241380.064,1240822.2,254.5,303.364,,,,,,,,,,541178.464,,,,700201.6,,,,,,,,,,,,,,,,,,,,,,,,,,,,,,,,,N,Y,Y
1005310,110071162472,AES - PUERTO RICO COGENERATION PLANT,GUAYAMA,PR,00785,"KM 142, RTE. #3 BO. JOBOS",GUAYAMA MUNICIPIO,17.95,-66.15,221112,C,Power Plants,4455499.092,4428374.1,9921.75,17203.242,,,,,,,,,,4455499.092,,,,,,,,,,,,,,,,,,,,,,,,,,,,,,,,,,,,,N,N,Y
1001444,110000522113,AES Alamitos,LONG BEACH,CA,90803,690 N STUDEBAKER ROAD,Los Angeles,33.77,-118.10,221112,"C,D",Power Plants,531900.472,531358.5,247.25,294.722,,,,,,,,,,89330.212,442570.26,,,,,,,,,,,,,,,,,,,,,,,,,,,,,,,,,,,,N,N,N
1005972,110027164164,AES HAWAII INC,KAPOLEI,HI,96707,91-086 KAOMI LP,HONOLULU COUNTY,21.30,-158.11,221112,C,Power Plants,1309102.42,1298421.9,3904,6776.52,,,,,,,,,,1309102.42,,,,,,,,,,,,,,,,,,,,,,,,,,,,,,,,,,,,,N,N,Y
1001447,110002921713,AES Huntington Beach,HUNTINGTON BEACH,CA,92646,21730 NEWLAND ST,Orange,33.64,-117.98,221112,"C,D",Power Plants,255988.948,255728.1,119,141.848,,,,,,,,,,105548.404,150440.544,,,,,,,,,,,,,,,,,,,,,,,,,,,,,,,,,,,,N,N,N
1001450,110014322170,AES Redondo Beach,REDONDO BEACH,CA,90277,1100 N HARBOR DRIVE,Los Angeles,33.85,-118.40,221112,D,Power Plants,171792.812,171618,79.75,95.062,,,,,,,,,,,171792.812,,,,,,,,,,,,,,,,,,,,,,,,,,,,,,,,,,,,N,N,N
1001223,110000551055,AES Warrior Run,CUMBERLAND,MD,21502,11600 MEXICO FARMS RD SE,Allegany,39.59,-78.75,221112,"C,D,PP","Power Plants,Suppliers of CO2",1226185.332,1216360.7,3593.75,6230.882,,,,,,,,,,160.6,1226024.732,,,,,,,,,,,,,,,,,,,,,,,,,,,,,,,,,,,,N,N,Y
1003853,110045614689,AFTON CHEMICAL CORP,SAUGET,IL,62201,501 MONSANTO AVE.,ST. CLAIR COUNTY,38.60,-90.17,324191,C,Petroleum and Natural Gas Systems,51203.208,51150.6,24,28.608,,,,,,,,,,51203.208,,,,,,,,,,,,,,,,,,,,,,,,,,,,,,,,,,,,,N,N,N
1007551,110007383919,AG Energy,Ogdensburg,NY,13669,21 Entrance Avenue,ST. LAWRENCE COUNTY,44.73,-75.44,221112,"C,D",Power Plants,8452.968,8444.2,4,4.768,,,,,,,,,,8452.968,0,,,,,,,,,,,,,,,,,,,,,,,,,,,,,,,,,,,,N,N,N
1002069,110018869303,AG PROCESSING INC,EMMETSBURG,IA,50536,4739 380TH ST,PALO ALTO COUNTY,43.10,-94.65,311224,C,Other,25308.804,25282.5,12,14.304,,,,,,,,,,25308.804,,,,,,,,,,,,,,,,,,,,,,,,,,,,,,,,,,,,,N,N,N
1002070,110000414365,AG PROCESSING INC A COOP-MANNING,MANNING,IA,51455,1000 300TH STREET,CARROLL COUNTY,41.92,-95.07,311224,C,Other,20867.672,20846.3,9.75,11.622,,,,,,,,,,20867.672,,,,,,,,,,,,,,,,,,,,,,,,,,,,,,,,,,,,,N,N,N
1006054,110011273022,AG PROCESSING INC-EAGLE GROVE,EAGLE GROVE,IA,50533,500 NORTH COMMERCIAL AVENUE,WRIGHT COUNTY,42.67,-93.90,311224,C,Other,68459.474,68338.8,49.75,70.924,,,,,,,,,,68459.474,,,,,,,,,,,,,,,,,,,,,,,,,,,,,,,,,,,,,N,N,N
1002408,110018868126,AG PROCESSING INC-SHELDON,SHELDON,IA,51201,804 2ND AVE,O'BRIEN COUNTY,43.18,-95.86,311224,C,Other,27399.496,27371,13,15.496,,,,,,,,,,27399.496,,,,,,,,,,,,,,,,,,,,,,,,,,,,,,,,,,,,,N,N,N
1002291,110000427093,AG PROCESSING INCORPORATED A COOPERATIVE,DAWSON,MN,56232,800 DIAGONAL STREET,LAC QUI PARLE COUNTY,44.93,-96.06,311224,C,Other,42325.64,42281.8,20,23.84,,,,,,,,,,42325.64,,,,,,,,,,,,,,,,,,,,,,,,,,,,,,,,,,,,,N,N,N
1007333,110003253121,AGC FLAT GLASS N AMERICA INC,RICHMOND,KY,40475,201 DUNCANNON LANE,MADISON COUNTY,37.70,-84.27,327211,"C,N",Minerals,94867.692,94797,32.25,38.442,,,,,,,,,,70.692,,,,,,,,,94797,,,,,,,,,,,,,,,,,,,,,,,,,,,,N,N,Y
1002067,110054910094,AGP SOY/CORN PROCESSING,HASTINGS,NE,68901,2801 E 7TH ST,ADAMS COUNTY,40.59,-98.34,311224,C,Other,226105.372,224405.4,623,1076.972,,,,,,,,,,226105.372,,,,,,,,,,,,,,,,,,,,,,,,,,,,,,,,,,,,,N,N,Y
1005284,110000427020,AGRI ENERGY LLC,LUVERNE,MN,56156,502 SOUTH WALNUT AVENUE,ROCK COUNTY,43.65,-96.22,325199,"C,II","Chemicals,Waste",27128.198,27084,29,15.198,,,,,,,,,,27111.948,,,,,,,,,,,,,,,,,,,,,,,,,,,,,,,,,,16.25,,,N,N,N
1002380,110070288634,AGRIUM US BORGER NITROGEN OPERATIONS,BORGER,TX,79007,9201 FM 1551,HUTCHINSON COUNTY,35.64,-101.42,325311,"C,G,PP","Chemicals,Suppliers of CO2",902306.712,901885.3,192.25,229.162,,,,,,,,,,408678.312,,,,493628.4,,,,,,,,,,,,,,,,,,,,,,,,,,,,,,,,,Y,Y,N
1004236,110007030186,AGRIUM US INC - KFO,KENNEWICK,WA,99337,227515 E BOWLES ROAD,BENTON COUNTY,46.17,-119.02,325311,"C,U,V",Chemicals,145449.44,11197.7,1.25,134250.49,,,,,,,,,,2407.84,,,,,,,,,,,,,,,,8792.6,134249,,,,,,,,,,,,,,,,,,,,N,N,N
1001919,110071162246,AHN Heartland Ingredients,EDDYVILLE,IA,52553,1116 Highway 137,MONROE COUNTY,41.14,-92.65,311119,C,Other,127169.972,127039,59.75,71.222,,,,,,,,,,127169.972,,,,,,,,,,,,,,,,,,,,,,,,,,,,,,,,,,,,,N,N,N
1006430,110070835034,"AIR LIQUID LARGE INDUSTRIES US, LP",EL SEGUNDO,CA,90245,324 W EL SEGUNDO BLVD,LOS ANGELES COUNTY,33.91,-118.40,325120,P,Chemicals,601812.2,601812.2,,,,,,,,,,,,,,,,,,,,,,,601812.2,,,,,,,,,,,,,,,,,,,,,,,,,,N,N,N
1003724,110005191078,AIR LIQUIDE - CORPUS CHRISTI SMR,CORPUS CHRISTI,TX,78407,5880 UP RIVER ROAD,NUECES COUNTY,27.81,-97.47,325120,P,Chemicals,405375.2,405375.2,,,,,,,,,,,,,,,,,,,,,,,405375.2,,,,,,,,,,,,,,,,,,,,,,,,,,N,N,N
1003730,110005184497,AIR LIQUIDE - FREEPORT HYCO PLANT,FREEPORT,TX,77541,2398 VICTORIA ROAD,BRAZORIA COUNTY,28.98,-95.38,325120,"C,P",Chemicals,204163.1,204163.1,,,,,,,,,,,,113.7,,,,,,,,,,,204049.4,,,,,,,,,,,,,,,,,,,,,,,,,,N,N,N
1003780,110014407846,AIR LIQUIDE - PORT NECHES ASU COGENERATION PLANT,PORT NECHES,TX,77651,2121 PARK STREET,JEFFERSON COUNTY,29.98,-93.95,325120,C,Chemicals,224753.604,224521.8,105.75,126.054,,,,,,,,,,224753.604,,,,,,,,,,,,,,,,,,,,,,,,,,,,,,,,,,,,,N,N,N
1003910,110056955610,AIR LIQUIDE AMERICA CORP,LONGVIEW,TX,75602,2292 Callahan Rd,HARRISON COUNTY,32.45,-94.69,325120,P,Chemicals,421383.3,421383.3,,,,,,,,,,,,,,,,,,,,,,,421383.3,,,,,,,,,,,,,,,,,,,,,,,,,,N,N,N
1006115,110070712127,AIR LIQUIDE AMERICA CORP.,GEISMAR,LA,70734,36597 HWY 30,ASCENSION PARISH,30.21,-90.99,325120,C,Chemicals,337135.98,336788,158.75,189.23,,,,,,,,,,337135.98,,,,,,,,,,,,,,,,,,,,,,,,,,,,,,,,,,,,,N,N,N
1003591,110066912586,AIR LIQUIDE GEISMAR UTILITY SERVICES,GEISMAR,LA,70734,36183 HWY 30,ASCENSION PARISH,30.22,-91.00,221330,C,Power Plants,156240.194,156075.4,74.5,90.294,,,,,,,,,727.5,156240.194,,,,,,,,,,,,,,,,,,,,,,,,,,,,,,,,,,,,,N,N,N
1003748,110041623641,AIR LIQUIDE LARGE INDUSTRIES US LP - RODEO HYDROGEN PLANT,RODEO,CA,94572,1391 SAN PABLO AVE,CONTRA COSTA COUNTY,38.05,-122.26,325120,P,Chemicals,800781.6,800781.6,,,,,,,,,,,,,,,,,,,,,,,800781.6,,,,,,,,,,,,,,,,,,,,,,,,,,N,N,N
1003013,110017619861,AIR PRODUCTS & CHEMICAL INC - LAKE CHARLES FACILITY,WESTLAKE,LA,70669,102 TROUSDALE RD,CALCASIEU PARISH,30.24,-93.28,325120,P,Chemicals,661607.6,661607.6,,,,,,,,,,,,,,,,,,,,,,,661607.6,,,,,,,,,,,,,,,,,,,,,,,,,,N,N,N
1002754,110022828813,AIR PRODUCTS & CHEMICALS INC - CONVENT SMR,CONVENT,LA,70723,10759 CONVENT WAY,ST. JAMES PARISH,30.11,-90.88,325120,P,Chemicals,515418.9,515418.9,,,,,,,,,,,,,,,,,,,,,,,515418.9,,,,,,,,,,,,,,,,,,,,,,,,,,N,N,N
1002698,110006020304,AIR PRODUCTS & CHEMICALS INC - Geismar SMR,GEISMAR,LA,70734,8013 HWY 3251,ASCENSION PARISH,30.18,-90.99,325120,"P,PP","Chemicals,Suppliers of CO2",59766.8,59766.8,,,,,,,,,,,,,,,,,,,,,,,59766.8,,,,,,,,,,,,,,,,,,,,,,,,,,N,Y,N
1003009,110071159605,AIR PRODUCTS & CHEMICALS INC - INDUSTRIAL GAS PRODUCTION FACILITY,NEW ORLEANS,LA,70129,14700 INTRACOASTAL DRIVE,ORLEANS PARISH,30.02,-89.90,325120,"C,P",Chemicals,237131.696,237130.6,0.5,0.596,,,,,,,,,,880.896,,,,,,,,,,,236250.8,,,,,,,,,,,,,,,,,,,,,,,,,,N,N,N
1002121,110000483227,AIR PRODUCTS & CHEMICALS INC MARTINEZ WATERFRONT ROAD,MARTINEZ,CA,94553,110 WATERFRONT RD,CONTRA COSTA COUNTY,38.03,-122.08,325120,P,Chemicals,717297.2,717297.2,,,,,,,,,,,,,,,,,,,,,,,717297.2,,,,,,,,,,,,,,,,,,,,,,,,,,N,N,N
1002122,110071160496,"AIR PRODUCTS & CHEMICALS, INC, Tesoro Martinez",MARTINEZ,CA,94553,,CONTRA COSTA COUNTY,38.03,-122.07,325120,P,Chemicals,264073.012,264048.9,11,13.112,,,,,,,,,,,,,,,,,,,,,264073.012,,,,,,,,,,,,,,,,,,,,,,,,,,N,N,Y
1005809,110071160505,AIR PRODUCTS AND CHEMICALS INC - CATLETTSBURG HYDROGEN PLANT,CATLETTSBURG,KY,41129,11631 US Route 23,BOYD COUNTY,38.38,-82.61,325120,P,Chemicals,145290.5,145290.5,,,,,,,,,,,,,,,,,,,,,,,145290.5,,,,,,,,,,,,,,,,,,,,,,,,,,N,N,N
1002727,110071161564,AIR PRODUCTS AND CHEMICALS INC - GARYVILLE,GARYVILLE,LA,70051,4663 W AIRLINE HWY,ST. JOHN THE BAPTIST PARISH,30.10,-90.65,325120,P,Chemicals,866609.9,866609.9,,,,,,,,,,,,,,,,,,,,,,,866609.9,,,,,,,,,,,,,,,,,,,,,,,,,,N,N,N
1002123,110000750358,AIR PRODUCTS AND CHEMICALS INCORPORATED,SACRAMENTO,CA,95826,5025 83RD STREET,SACRAMENTO COUNTY,38.53,-121.40,325120,P,Chemicals,47119.8,47119.8,,,,,,,,,,,,,,,,,,,,,,,47119.8,,,,,,,,,,,,,,,,,,,,,,,,,,N,N,N
1002430,110012710423,AIR PRODUCTS BAYTOWN PLANT,BAYTOWN,TX,77520,5503 WEST BAKER ROAD,HARRIS COUNTY,29.76,-95.02,325120,C,Chemicals,105219.104,105110.6,49.5,59.004,,,,,,,,,,105219.104,,,,,,,,,,,,,,,,,,,,,,,,,,,,,,,,,,,,,N,N,N
1002257,110002305443,AIR PRODUCTS CARSON HYDROGEN PLANT,CARSON,CA,90810,23300 SOUTH ALAMEDA STREET,LOS ANGELES COUNTY,33.81,-118.23,325120,P,Chemicals,698524.9,698524.9,,,,,,,,,,,,,,,,,,,,,,,698524.9,,,,,,,,,,,,,,,,,,,,,,,,,,N,N,N
1002435,110000476084,AIR PRODUCTS WILMINGTON HYDROGEN PLANT,WILMINGTON,CA,90744,700 HENRY FORD AVENUE,LOS ANGELES COUNTY,33.78,-118.24,325120,P,Chemicals,819053.45,818228.6,243.75,581.1,,,,,,,,,,,,,,,,,,,,,819053.45,,,,,,,,,,,,,,,,,,,,,,,,,,N,N,Y
1005615,110043800553,AK Steel Corporation West Works,Ashland,KY,41101,170 Armco Road,BOYD COUNTY,38.50,-82.67,331110,C,Metals,68109.88,68036.9,32.75,40.23,,,,,,,,,,68109.88,,,,,,,,,,,,,,,,,,,,,,,,,,,,,,,,,,,,,N,N,N
1006088,110006219733,AKRON REGIONAL LANDFILL *,AKRON,OH,44313,1585 HARDY ROAD,SUMMIT COUNTY,41.15,-81.56,562212,HH,Waste,3263.25,,3263.25,,,,,,,,,,,,,,,,,,,,,,,,,,,,,,,,,,,,,,,,,,,,3263.25,,,,N,N,N
1005149,110000594642,AL CORN CLEAN FUEL,CLAREMONT,MN,55924,797 5th Street,DODGE COUNTY,44.05,-93.02,325193,C,Other,165457.576,165286.6,78,92.976,,,,,,,,,,165457.576,,,,,,,,,,,,,,,,,,,,,,,,,,,,,,,,,,,,,N,N,N
1000129,110012143304,AL Sandersville,WARTHEN,GA,31094,1600 MILLS LINDSEY SCHOOL ROAD,Washington,33.12,-82.86,221112,D,Power Plants,49762.116,49711.7,23,27.416,,,,,,,,,,,49762.116,,,,,,,,,,,,,,,,,,,,,,,,,,,,,,,,,,,,N,N,N
1007917,110000589612,"ALABAMA RIVER CELLULOSE, LLC",PERDUE HILL,AL,36470,2373 LENA LANDEGGER HWY,MONROE COUNTY,31.58,-87.49,322110,"AA,C,TT","Pulp and Paper,Waste",300705.582,198658.3,98744.25,3303.032,,,,,,,,,2336753.8,70071.832,,,,,,,,,,,,,,,,,,,,,,,,,,,132533.25,,,,,,,,,98100.5,N,N,N
1007272,110000359068,ALADDIN MILLS - ANTIOCH RD PLA NT,DALTON,GA,30720,2001 ANTIOCH ROAD,WHITFIELD COUNTY,34.73,-84.95,314110,C,Other,44824.632,44778.6,21,25.032,,,,,,,,,,44824.632,,,,,,,,,,,,,,,,,,,,,,,,,,,,,,,,,,,,,N,N,N
1006276,110037939737,ALBANY LANDFILL,ALBANY,NY,12205,525 RAPP RD,ALBANY COUNTY,42.70,-73.85,562212,HH,Waste,68477.75,,68477.75,,,,,,,,,,,,,,,,,,,,,,,,,,,,,,,,,,,,,,,,,,,,68477.75,,,,N,N,N
1003402,110056955987,ALBEMARLE CORPORATION HOUSTON PLANT,PASADENA,TX,77503,2500 N. SOUTH ST.,HARRIS COUNTY,29.74,-95.17,325199,C,Chemicals,45589.318,45540.2,22,27.118,,,,,,,,,,45589.318,,,,,,,,,,,,,,,,,,,,,,,,,,,,,,,,,,,,,N,N,N
1004307,110000743508,ALBEMARLE CORPORATION-SOUTH PLANT,MAGNOLIA,AR,71753,2270 HWY 79 SOUTH OF MAGNOLIA,COLUMBIA COUNTY,33.18,-93.22,325180,C,Chemicals,75618.916,75541.1,35.5,42.316,,,,,,,,,,75618.916,,,,,,,,,,,,,,,,,,,,,,,,,,,,,,,,,,,,,N,N,N
1001877,110000602045,ALCOA INC - WARRICK OPERATIONS,NEWBURGH,IN,47629,,WARRICK COUNTY,37.92,-87.33,331313,"C,D,F","Metals,Power Plants",5235337.915,5085427.2,13822,23918.374,,112170.341,,,,,,,,180797.42,4693269.854,,361270.641,,,,,,,,,,,,,,,,,,,,,,,,,,,,,,,,,,N,N,Y
1003562,110040947820,ALCOA INTALCO WORKS,FERNDALE,WA,98248,4050 MOUNTAIN VIEW RD.,WHATCOM COUNTY,48.85,-122.71,331313,"C,F,TT","Metals,Waste",1060050.628,367255.2,8932.25,31.29,,683831.888,,,,,,,,56025.54,,,995119.088,,,,,,,,,,,,,,,,,,,,,,,,,,,,,,,,,8906,N,N,N
1003201,110000606997,ALCOA WORLD ALUMINA ATLANTIC,POINT COMFORT,TX,77978,,CALHOUN COUNTY,28.65,-96.56,331313,"C,TT","Metals,Waste",15203.794,341.9,14861,0.894,,,,,,,,,,343.044,,,,,,,,,,,,,,,,,,,,,,,,,,,,,,,,,,,,14860.75,N,N,N
1003147,110034135264,ALCOA-MARYVILLE-BLOUNT COUNTY LANDFILL,Friendsville,TN,37737,240 Long Powers Road,BLOUNT COUNTY,35.74,-84.06,562212,HH,Waste,70912,,70912,,,,,,,,,,,,,,,,,,,,,,,,,,,,,,,,,,,,,,,,,,,,70912,,,,N,N,N
1004335,110043796942,ALL PURPOSE LANDFILL,SANTA CLARA,CA,95050,5401 Lafayette Street,SANTA CLARA COUNTY,37.41,-121.97,562212,HH,Waste,46441.25,,46441.25,,,,,,,,,,,,,,,,,,,,,,,,,,,,,,,,,,,,,,,,,,,,46441.25,,,,N,N,N
1005862,110000345010,ALLEGANY BALLISTICS LABORATORY,KEYSER,WV,26726,210 STATE ROUTE 956,MINERAL COUNTY,39.56,-78.84,336415,C,Other,24633.956,24608.2,11.75,14.006,,,,,,,,,,24633.956,,,,,,,,,,,,,,,,,,,,,,,,,,,,,,,,,,,,,N,N,N
1007192,110001936488,ALLEN COUNTY PUBLIC WORKS,LA HARPE,KS,66751,1170 2800TH ST,ALLEN COUNTY,37.90,-95.28,562212,"C,HH",Waste,67800.574,112.6,67661.75,26.224,,,,,,,,,2279.5,143.074,,,,,,,,,,,,,,,,,,,,,,,,,,,,,,,,,67657.5,,,,N,N,N
1007645,110001028290,ALLIANCE SANI LDFL,TAYLOR,PA,18517,398 KEYSER AVENUE,LACKAWANNA COUNTY,41.40,-75.74,562212,"C,HH",Waste,62524.848,641.8,61882.75,0.298,,,,,,,,,,642.348,,,,,,,,,,,,,,,,,,,,,,,,,,,,,,,,,61882.5,,,,N,N,N
1006197,110001167745,ALLIED IMPERIAL LANDFILL,IMPERIAL,CA,92251,104 EAST ROBINSON ROAD,IMPERIAL COUNTY,32.85,-115.53,562212,HH,Waste,28027.25,,28027.25,,,,,,,,,,,,,,,,,,,,,,,,,,,,,,,,,,,,,,,,,,,,28027.25,,,,N,N,N
1000048,110070030311,"ALLISON TRANSMISSION, Inc.",INDIANAPOLIS,IN,46222,One Allison Way,MARION COUNTY,39.78,-86.24,336350,C,Other,25575.59,25537,14.75,23.84,,,,,,,,,,25575.59,,,,,,,,,,,,,,,,,,,,,,,,,,,,,,,,,,,,,N,N,N
1004327,110000451467,ALMATIS INC - BAUXITE ARKANSAS,Benton,AR,72015,4701 ALCOA ROAD,SALINE COUNTY,34.58,-92.53,331313,C,Metals,63391.412,63326.2,29.75,35.462,,,,,,,,,,63391.412,,,,,,,,,,,,,,,,,,,,,,,,,,,,,,,,,,,,,N,N,N
1007622,110041023807,ALON REFINING KROTZ SPRINGS INC,KROTZ SPRINGS,LA,70750,356 S. LEVEE RD,ST. LANDRY PARISH,30.53,-91.75,324110,"C,MM-REF,Y","Petroleum Product Suppliers,Refineries",587064.012,583435.1,1984.25,1644.662,,,,,,,,,,313847.024,,,,,,,,,,,,,,,,,,,,,,,,,273216.988,,,,,,,,,,,,N,N,Y
1007291,110060497270,ALPHA RIDGE LANDFILL,MARRIOTTSVILLE,MD,21104,2350 MARRIOTTSVILLE ROAD,HOWARD COUNTY,39.31,-76.90,562212,"C,HH",Waste,15695.512,57.6,15632.25,5.662,,,,,,,,,1608.4,65.762,,,,,,,,,,,,,,,,,,,,,,,,,,,,,,,,,15629.75,,,,N,N,N
1013670,110071045624,ALTIVIA Institute Facilities,Dunbar,WV,25064,250 Carbide Rd,KANAWHA COUNTY,38.38,-81.78,325194,C,Chemicals,94886.988,94788.3,44.75,53.938,,,,,,,,,,94886.988,,,,,,,,,,,,,,,,,,,,,,,,,,,,,,,,,,,,,N,N,N
1007401,110042073332,"ALTIVIA Petrochemicals, LLC - HAVERHILL COMPLEX",HAVERHILL,OH,45636,1019 HAVERHILL OHIO FURNACE ROAD,SCIOTO COUNTY,38.59,-82.82,325194,C,Chemicals,60866.23,60804.7,28.75,32.78,,,,,,,,,,60866.23,,,,,,,,,,,,,,,,,,,,,,,,,,,,,,,,,,,,,N,N,N
1007263,110031262112,ALTO COLUMBIA LLC,BOARDMAN,OR,97818,71335 RAIL LOOP DRIVE,MORROW COUNTY,45.86,-119.66,325193,"C,PP","Other,Suppliers of CO2",39213.852,39173.3,18.5,22.052,,,,,,,,,,39213.852,,,,,,,,,,,,,,,,,,,,,,,,,,,,,,,,,,,,,N,N,N
1007264,110035761912,ALTO MAGIC VALLEY LLC,BURLEY,ID,83318,2600 WASHINGTON AVENUE,CASSIA COUNTY,42.52,-113.82,325193,C,Other,64768.456,64701.6,30.5,36.356,,,,,,,,,,64768.456,,,,,,,,,,,,,,,,,,,,,,,,,,,,,,,,,,,,,N,N,N
1003268,110000438679,ALTON STEEL COMPANY,ALTON,IL,62002,#5 CUT ST.,MADISON COUNTY,38.88,-90.15,331110,"C,Q",Metals,34862.128,34842.4,9,10.728,,,,,,,,,,19020.628,,,,,,,,,,,,15841.5,,,,,,,,,,,,,,,,,,,,,,,,,N,N,N
1005184,110071162512,ALYESKA PIPELINE SE/TAPS PUMP STATION 01,PRUDHOE BAY,AK,99734,,NORTH SLOPE BOROUGH,70.26,-148.62,486110,C,Other,56021.94,55964.4,26.25,31.29,,,,,,,,,,56021.94,,,,,,,,,,,,,,,,,,,,,,,,,,,,,,,,,,,,,N,N,N
1005781,110064041834,"ALYESKA PIPELINE SERVICE COMPANY, Valdez Marine Terminal",VALDEZ,AK,99686,300 DAYVILLE ROAD,VALDEZ-CORDOVA CENSUS AREA,61.08,-146.39,486110,C,Other,26807.414,26715.2,27.25,64.964,,,,,,,,,,26807.414,,,,,,,,,,,,,,,,,,,,,,,,,,,,,,,,,,,,,N,N,N
1005491,110069711869,"AM/NS Calvert, LLC",CALVERT,AL,36513,1 AM/NS Way,MOBILE COUNTY,30.80,-88.10,331110,C,Metals,524311.976,523771.1,246.75,294.126,,,,,,,,,,524311.976,,,,,,,,,,,,,,,,,,,,,,,,,,,,,,,,,,,,,N,N,N
1005707,110000468609,AMALGAMATED SUGAR CO LLC,NAMPA,ID,83687,138 WEST KARCHER ROAD,CANYON COUNTY,43.61,-116.58,311313,"C,S,TT","Minerals,Waste",340142.542,209444,130526,172.542,,,,,,,,,,193893.542,,,,,,,,,,,,,,15849,,,,,,,,,,,,,,,,,,,,,,130400,Y,N,N
1005712,110000468388,AMALGAMATED SUGAR CO LLC,TWIN FALLS,ID,83301,2320 ORCHARD DR. E.,TWIN FALLS COUNTY,42.53,-114.43,311313,"C,S",Minerals,279557.628,278208.5,504,845.128,,,,,,,,,,260425.828,,,,,,,,,,,,,,19131.8,,,,,,,,,,,,,,,,,,,,,,,Y,N,N
1006412,110000468431,AMALGAMATED SUGAR CO LLC,PAUL,ID,83347,50 SOUTH 500 WEST,MINIDOKA COUNTY,42.61,-113.76,311313,"C,S,TT","Minerals,Waste",274333.674,263509.4,10582,242.274,,,,,,,,,,215266.974,,,,,,,,,,,,,,48651.7,,,,,,,,,,,,,,,,,,,,,,10415,Y,N,N
1007178,110028032698,AMEA Sylacauga Plant,SYLACAUGA,AL,35150,125 THOMPSON LANE,Talladega,33.17,-86.28,221112,D,Power Plants,28256.744,28227.7,13.25,15.794,,,,,,,,,,,28256.744,,,,,,,,,,,,,,,,,,,,,,,,,,,,,,,,,,,,N,N,N
1004732,110012703271,AMERICAN ACRYL PASADENA,PASADENA,TX,77507,"4631 Old Hwy 146, Suite B",HARRIS COUNTY,29.62,-95.07,325199,C,Chemicals,71988.028,71913.5,34,40.528,,,,,,,,,,71988.028,,,,,,,,,,,,,,,,,,,,,,,,,,,,,,,,,,,,,N,N,N
1005432,110010495384,AMERICAN AIRLINES,TULSA,OK,74116,3800 NORTH MINGO ROAD,TULSA COUNTY,36.20,-95.87,481111,C,Other,42300.298,42248.7,21.5,30.098,,,,,,,,,,42300.298,,,,,,,,,,,,,,,,,,,,,,,,,,,,,,,,,,,,,N,N,N
1004417,110013667488,AMERICAN AVENUE LANDFILL,KERMAN,CA,93630,18950 W AMERICAN AVENUE,FRESNO COUNTY,36.67,-120.14,562212,"C,HH",Waste,154659.35,10.6,154648.75,,,,,,,,,,,10.6,,,,,,,,,,,,,,,,,,,,,,,,,,,,,,,,,154648.75,,,,N,N,N
1005327,110000366611,AMERICAN CAST IRON PIPE CO,BIRMINGHAM,AL,35207,2930 NORTH 16TH STREET,JEFFERSON COUNTY,33.55,-86.83,331511,C,Metals,152462.54,151793.6,250.25,418.69,,,,,,,,,,152462.54,,,,,,,,,,,,,,,,,,,,,,,,,,,,,,,,,,,,,N,N,N
1008041,110054631225,AMERICAN COLLOID,Colony,WY,82710,,BUTTE COUNTY,44.87,-104.15,212325,C,Other,70691.08,70433.4,98.25,159.43,,,,,,,,,,70691.08,,,,,,,,,,,,,,,,,,,,,,,,,,,,,,,,,,,,,N,N,N
1006354,110070273706,AMERICAN CRYSTAL SUGAR - CROOKSTON,CROOKSTON,MN,56716,1201 Hwy 75 South,POLK COUNTY,47.76,-96.63,311313,"C,S,TT","Minerals,Waste",326691.436,244058.6,81699.5,933.336,,,,,,,,,,223296.086,,,,,,,,,,,,,,22239.1,,,,,,,,,,,,,,,,,,,,,,81156.25,Y,N,N
1005751,110007602095,AMERICAN CRYSTAL SUGAR - E GRAND FORKS,EAST GRAND FORKS,MN,56721,1020 Business Hwy 2,POLK COUNTY,47.93,-97.01,311313,"C,S,TT","Minerals,Waste",415704.424,290431.3,123146,2127.124,,,,,,,,,6728.7,210756.174,,,,,,,,,,,,,,83030,,,,,,,,,,,,,,,,,,,,,,121918.25,Y,N,Y
1005753,110056190704,AMERICAN CRYSTAL SUGAR - HILLSBORO,HILLSBORO,ND,58045,121 Highway 81 NE,TRAILL COUNTY,47.44,-97.06,311313,"C,S,TT","Minerals,Waste",539882.714,411728.2,126309,1845.514,,,,,,,,,1860.5,379606.614,,,,,,,,,,,,,,35030.1,,,,,,,,,,,,,,,,,,,,,,125246,Y,N,N
1006877,110000427440,AMERICAN CRYSTAL SUGAR - MOORHEAD,MOORHEAD,MN,56560,2500 NORTH 11TH STREET,CLAY COUNTY,46.90,-96.76,311313,"C,S,TT","Minerals,Waste",324868.332,215003.7,109035,829.632,,,,,,,,,4.1,196585.432,,,,,,,,,,,,,,19730.4,,,,,,,,,,,,,,,,,,,,,,108552.5,Y,N,N
1002552,110039017391,AMERICAN ENVIRONMENTAL LANDFILL,SAND SPRINGS,OK,74063,212 N. 177TH W. AVENUE,OSAGE COUNTY,36.16,-96.19,562212,"C,HH",Waste,174306.526,59.7,174206,40.826,,,,,,,,,11314.5,118.026,,,,,,,,,,,,,,,,,,,,,,,,,,,,,,,,,174188.5,,,,N,N,N
1000007,110007014774,AMERICAN GYPSUM - BERNALILLO (WALLBOARD) PLANT,BERNALILLO,NM,87004,1000 N HILL RD,SANDOVAL COUNTY,35.33,-106.53,327420,C,Minerals,13131.4,13117.7,6.25,7.45,,,,,,,,,,13131.4,,,,,,,,,,,,,,,,,,,,,,,,,,,,,,,,,,,,,N,N,N
1005175,110007385551,AMERICAN GYPSUM CO /GYPSUM WALLBOARD PLT,DUKE,OK,73532,0.25 MILES W OF,JACKSON COUNTY,34.66,-99.59,327420,C,Minerals,87556.12,87465.7,41.25,49.17,,,,,,,,,,87556.12,,,,,,,,,,,,,,,,,,,,,,,,,,,,,,,,,,,,,N,N,N
1007404,110071162329,AMERICAN GYPSUM COMPANY,GYPSUM,CO,81637,740 Highway #6,EAGLE COUNTY,39.66,-106.96,327420,C,Minerals,62778.864,62714.2,29.5,35.164,,,,,,,,,,62778.864,,,,,,,,,,,,,,,,,,,,,,,,,,,,,,,,,,,,,N,N,N
1004845,110001556138,AMERICAN GYPSUM COMPANY,ALBUQUERQUE,NM,87113,4600 Paseo Del Norte NE,BERNALILLO COUNTY,35.17,-106.59,327420,C,Minerals,36869.012,36831.2,17.25,20.562,,,,,,,,,,36869.012,,,,,,,,,,,,,,,,,,,,,,,,,,,,,,,,,,,,,N,N,N
1005590,110000332220,AMERICAN REFINING GROUP INC,BRADFORD,PA,16701,77 NORTH KENDALL AVENUE,MCKEAN COUNTY,41.97,-78.63,324110,"C,MM-REF,Y","Petroleum Product Suppliers,Refineries",126708.524,125391.8,769,547.724,,,,,,,,,,125511.338,,,,,,,,,,,,,,,,,,,,,,,,,1197.186,,,,,,,,,,,,N,N,N
1001860,110009575762,AMERICAN SUGAR REFINING INC - Chalmette Refinery,ARABI,LA,70032,7417 N PETERS ST,ST. BERNARD PARISH,29.95,-90.00,311314,C,Other,126523.624,126393.2,59.5,70.924,,,,,,,,,,126523.624,,,,,,,,,,,,,,,,,,,,,,,,,,,,,,,,,,,,,N,N,N
1006919,110000378546,AMERICAN SYNTHETIC RUBBER,LOUISVILLE,KY,40216,4500 CAMPGROUND ROAD,JEFFERSON COUNTY,38.21,-85.85,325212,C,Other,211391.554,209873.6,557.5,960.454,,,,,,,,,,211391.554,,,,,,,,,,,,,,,,,,,,,,,,,,,,,,,,,,,,,N,N,N
1001962,110056954602,AMERICAS STYRENICS LLC - ST JAMES PLANT,ST. JAMES,LA,70086,9901 HWY 18,ST. JAMES PARISH,30.08,-90.92,325110,C,Chemicals,709022.046,707423.7,517.5,1080.846,,,,,,,,,,709022.046,,,,,,,,,,,,,,,,,,,,,,,,,,,,,,,,,,,,,N,N,N
1005072,110071162473,"AMGEN MANUFACTURING, LIMITED",JUNCOS,PR,00777,RD 31 KM 24.6,JUNCOS MUNICIPIO,18.24,-65.91,325412,C,Chemicals,35993.516,35870,36.5,87.016,,,,,,,,,,35993.516,,,,,,,,,,,,,,,,,,,,,,,,,,,,,,,,,,,,,N,N,N
1008730,110071159285,AMP Fremont Energy Center,Fremont,OH,43420,1275 Miarer Rd,SANDUSKY COUNTY,41.36,-83.12,221112,D,Power Plants,1336518.648,1335161.8,619,737.848,,,,,,,,,,,1336518.648,,,,,,,,,,,,,,,,,,,,,,,,,,,,,,,,,,,,N,N,N
1004746,110070754243,ANALOG DEVICES,CAMAS,WA,98607,4200 NW PACIFIC RIM BLVD,CLARK COUNTY,45.60,-122.45,334413,"C,I",Other,15185.01118,2178.4,1,1603.836,2329.52,5186.855182,3641.16,244.24,,,,,,2180.592,,,,,,13004.41918,,,,,,,,,,,,,,,,,,,,,,,,,,,,,,,N,N,N
1006810,110004841627,ANCHOR ACQUISITION LLC MONACA PLT,MONACA,PA,15061,400 9TH STREET,BEAVER COUNTY,40.69,-80.27,327212,"C,N",Minerals,38838.146,38809.9,12.75,15.496,,,,,,,,,,26712.446,,,,,,,,,12125.7,,,,,,,,,,,,,,,,,,,,,,,,,,,,N,N,N
1004508,110000382005,ANCHOR HOCKING GLASS CO PLANT NO 1 *,LANCASTER,OH,43130,1115 WEST FIFTH AVENUE,FAIRFIELD COUNTY,39.72,-82.62,327212,"C,N",Minerals,55760.416,55710,23,27.416,,,,,,,,,,48506.816,,,,,,,,,7253.6,,,,,,,,,,,,,,,,,,,,,,,,,,,,N,N,N
1007341,110034176692,ANCHORAGE REGIONAL LANDFILL,EAGLE RIVER,AK,99577,15500 E. EAGLE RIVER LOOP RD,ANCHORAGE MUNICIPALITY,61.29,-149.60,562212,"C,HH",Waste,170622.048,140.5,170481.25,0.298,,,,,,,,,,141.048,,,,,,,,,,,,,,,,,,,,,,,,,,,,,,,,,170481,,,,N,N,N
1007839,110002690730,ANDERSON LANDFILL,ANDERSON,CA,96007,18703 CAMBRIDGE ROAD,SHASTA COUNTY,40.42,-122.36,562212,HH,Waste,49169.75,,49169.75,,,,,,,,,,,,,,,,,,,,,,,,,,,,,,,,,,,,,,,,,,,,49169.75,,,,N,N,N
1005392,110030746959,ANGELINA COUNTY WASTE MANAGEMENT CENTER,LUFKIN,TX,75901,7521 FM 58,ANGELINA COUNTY,31.25,-94.70,562212,HH,Waste,76853.5,,76853.5,,,,,,,,,,,,,,,,,,,,,,,,,,,,,,,,,,,,,,,,,,,,76853.5,,,,N,N,N
1002263,110000450477,ANGUS CHEMICAL CO,STERLINGTON,LA,71280,350 LOUISIANA HIGHWAY 2,OUACHITA PARISH,32.69,-92.08,325199,"C,V",Chemicals,106557.988,88388.6,41.75,18127.638,,,,,,,,,,88480.116,,,,,,,,,,,,,,,,,18077.872,,,,,,,,,,,,,,,,,,,,N,N,N
1002576,110000325096,ANHEUSER BUSCH BALDWINSVILLE BREWERY,BALDWINSVILLE,NY,13027,2885 BELGIUM ROAD,ONONDAGA COUNTY,43.17,-76.31,312120,"C,PP","Other,Suppliers of CO2",29877.306,29819.2,21.75,36.356,,,,,,,,,4341.7,29877.306,,,,,,,,,,,,,,,,,,,,,,,,,,,,,,,,,,,,,N,N,N
1006111,110000382773,ANHEUSER BUSCH INC,COLUMBUS,OH,43229,700 SCHROCK ROAD,FRANKLIN COUNTY,40.10,-82.99,312120,C,Other,32956.234,32902.8,21.25,32.184,,,,,,,,,3763.6,32956.234,,,,,,,,,,,,,,,,,,,,,,,,,,,,,,,,,,,,,N,N,N
1002867,110017431322,ANHEUSER BUSCH INC. - L.A. BREWERY,VAN NUYS,CA,91406,15800 ROSCOE BOULEVARD,LOS ANGELES COUNTY,34.22,-118.48,312120,C,Other,33486.66,33427.9,23,35.76,,,,,,,,,4740.8,33486.66,,,,,,,,,,,,,,,,,,,,,,,,,,,,,,,,,,,,,N,N,N
1003352,110057414070,ANHEUSER BUSCH INCORPORATED FORT COLLINS BREWERY,FORT COLLINS,CO,80524,2351 BUSCH DRIVE,LARIMER COUNTY,40.62,-105.01,312120,C,Other,47110.172,47061.4,22.25,26.522,,,,,,,,,,47110.172,,,,,,,,,,,,,,,,,,,,,,,,,,,,,,,,,,,,,N,N,N
1003176,110000341684,ANHEUSER BUSCH LLC,WILLIAMSBURG,VA,23185,7801 POCAHONTAS TRAIL,JAMES CITY COUNTY,37.24,-76.65,312120,C,Other,36811.212,36773.4,17.25,20.562,,,,,,,,,,36811.212,,,,,,,,,,,,,,,,,,,,,,,,,,,,,,,,,,,,,N,N,N
1003224,110000461401,ANHEUSER-BUSCH HOUSTON BREWERY,HOUSTON,TX,77029,775 GELLHORN DRIVE,HARRIS COUNTY,29.77,-95.27,312120,C,Other,34417.066,34284.8,45.25,87.016,,,,,,,,,18915.7,34417.066,,,,,,,,,,,,,,,,,,,,,,,,,,,,,,,,,,,,,N,N,N
1002915,110040981195,ANHEUSER-BUSCH LLC,MERRIMACK,NH,03054,221 DANIEL WEBSTER HIGHWAY,HILLSBOROUGH COUNTY,42.82,-71.49,312120,C,Other,14449.808,14427.1,9,13.708,,,,,,,,,1362.6,14449.808,,,,,,,,,,,,,,,,,,,,,,,,,,,,,,,,,,,,,N,N,N
1006147,110000362036,ANHEUSER-BUSCH LLC,JACKSONVILLE,FL,32218,111 BUSCH DR.,DUVAL COUNTY,30.43,-81.65,312120,C,Other,54200.224,54118.4,33.25,48.574,,,,,,,,,5034.5,54200.224,,,,,,,,,,,,,,,,,,,,,,,,,,,,,,,,,,,,,N,N,N
1006904,110000356427,"ANHEUSER-BUSCH, INC. CARTERSVI LLE BREWERY",CARTERSVILLE,GA,30120,100 BUSCH DR.,BARTOW COUNTY,34.26,-84.78,312120,C,Other,21322.41,21287.8,13.75,20.86,,,,,,,,,2528,21322.41,,,,,,,,,,,,,,,,,,,,,,,,,,,,,,,,,,,,,N,N,N
1003525,110070344532,"ANHEUSER-BUSCH, INC. NEWARK BREWERY",NEWARK,NJ,07114,200 US HIGHWAY ONE,ESSEX COUNTY,40.69,-74.19,312120,C,Other,22373.696,22346.7,11.5,15.496,,,,,,,,,552.6,22373.696,,,,,,,,,,,,,,,,,,,,,,,,,,,,,,,,,,,,,N,N,N
1005490,110001547675,ANIMAS POWER PLANT,FARMINGTON,NM,87401,501 MCCORMICK SCHOOL ROAD,SAN JUAN COUNTY,36.72,-108.19,221112,C,Power Plants,1762.444,1760.8,0.75,0.894,,,,,,,,,,1762.444,,,,,,,,,,,,,,,,,,,,,,,,,,,,,,,,,,,,,N,N,N
1006178,110043808136,ANN ARBOR SLF PHASE I & II,ANN ARBOR,MI,48108,4150 PLATT RD,WASHTENAW COUNTY,42.23,-83.70,562212,HH,Waste,20231,,20231,,,,,,,,,,,,,,,,,,,,,,,,,,,,,,,,,,,,,,,,,,,,20231,,,,N,N,N
1007710,110038067472,ANTELOPE VALLEY RECYCLING AND DISPOSAL FACILITY,PALMDALE,CA,93551,1200 WEST CITY RANCH ROAD,LOS ANGELES COUNTY,34.57,-118.15,562212,"C,HH",Waste,66396.7,93.2,66303.5,,,,,,,,,,,93.2,,,,,,,,,,,,,,,,,,,,,,,,,,,,,,,,,66303.5,,,,N,N,N
1004003,110013935331,APACHE JUNCTION LANDFILL,APACHE JUNCTION,AZ,85219,4050 SOUTH TOMAHAWK RD,PINAL COUNTY,33.38,-111.53,562212,HH,Waste,70445.5,,70445.5,,,,,,,,,,,,,,,,,,,,,,,,,,,,,,,,,,,,,,,,,,,,70445.5,,,,N,N,N
1001908,110017427033,APACHE NITROGEN PRODUCTS - PLANT,St. David,AZ,85630,1436 SOUTH APACHE POWDER ROAD,COCHISE COUNTY,31.88,-110.24,325311,"C,V",Chemicals,475614.156,12398.1,5.75,463210.306,,,,,,,,,,12410.704,,,,,,,,,,,,,,,,,463203.452,,,,,,,,,,,,,,,,,,,,N,N,N
1006777,110024560875,"APEX ENVIRONMENTAL, LLC - SANITARY LANDFILL (0641000223)",AMSTERDAM,OH,43903,11 COUNTY ROAD 78,JEFFERSON COUNTY,40.43,-80.91,562212,"C,HH",Waste,487236.5,22.5,487214,,,,,,,,,,,22.5,,,,,,,,,,,,,,,,,,,,,,,,,,,,,,,,,487214,,,,N,N,N
1004352,110063272211,APEX REGIONAL LANDFILL,LAS VEGAS,NV,89165,13550 US HIGHWAY 93 NORTH,CLARK COUNTY,36.29,-115.28,562212,"C,HH",Waste,209598.578,1.7,209459.5,137.378,,,,,,,,,38096,197.578,,,,,,,,,,,,,,,,,,,,,,,,,,,,,,,,,209401,,,,N,N,N
1000793,110069729271,"APG Polytech, LLC",APPLE GROVE,WV,25502,27610 Huntington Road,MASON COUNTY,38.66,-82.17,325211,C,Other,41793.392,41750.1,19.75,23.542,,,,,,,,,,41793.392,,,,,,,,,,,,,,,,,,,,,,,,,,,,,,,,,,,,,N,N,N
1005669,110071161738,APPLETON ROARING SPRING PAPER MFG,ROARING SPRING,PA,16673,100 PAPER MILL RD.,BLAIR COUNTY,40.34,-78.41,322121,"AA,C",Pulp and Paper,97890.66,96454.3,409.75,1026.61,,,,,,,,,164163.8,85677.224,,,,,,,,,,,,,,,,,,,,,,,,,,,12213.436,,,,,,,,,,N,N,N
1002596,110067751702,APPVION - APPLETON PLT,APPLETON,WI,54911,825 E WISCONSIN AVE,OUTAGAMIE COUNTY,44.27,-88.39,322230,C,Pulp and Paper,31911.28,31878.4,15,17.88,,,,,,,,,,31911.28,,,,,,,,,,,,,,,,,,,,,,,,,,,,,,,,,,,,,N,N,N
1001423,110071160043,APS Saguaro Power Plant,RED ROCK,AZ,85245,MAIL POST 228,Pinal,32.55,-111.30,221112,"C,D",Power Plants,93385.452,93290.1,43.5,51.852,,,,,,,,,,35911.864,57473.588,,,,,,,,,,,,,,,,,,,,,,,,,,,,,,,,,,,,N,N,N
1001422,110017422145,APS West Phoenix Power Plant,PHOENIX,AZ,85043,4606 WEST HADLEY,Maricopa,33.44,-112.16,221112,"C,D",Power Plants,1419156.086,1417727.7,651.5,776.886,,,,,,,,,,523201.658,895954.428,,,,,,,,,,,,,,,,,,,,,,,,,,,,,,,,,,,,N,N,Y
1005906,110001709116,AR GLASS CONTAINER CORP,JONESBORO,AR,72401,516 WEST JOHNSON AVENUE,CRAIGHEAD COUNTY,35.85,-90.71,327213,"C,N",Minerals,34652.888,34622.2,14,16.688,,,,,,,,,,29666.488,,,,,,,,,4986.4,,,,,,,,,,,,,,,,,,,,,,,,,,,,N,N,N
1008752,110031339530,"ARAUCO NORTH AMERICA, INC - BENNETTSVILLE MDF",BENNETTSVILLE,SC,29512,579 WILLAMETTE ROAD,MARLBORO COUNTY,34.60,-79.78,321219,C,Other,22182.534,21458,111.25,613.284,,,,,,,,,53233,22182.534,,,,,,,,,,,,,,,,,,,,,,,,,,,,,,,,,,,,,N,N,N
1008034,110015815402,ARBOR HILLS LANDFILL,NORTHVILLE,MI,48167,10690 W. SIX MILE RD,WASHTENAW COUNTY,42.41,-83.56,562212,"C,HH",Waste,200210.95,106.2,200104.75,,,,,,,,,,,106.2,,,,,,,,,,,,,,,,,,,,,,,,,,,,,,,,,200104.75,,,,N,N,N
1005385,110041568568,ARCELORMITTAL TUBULAR PRODUCTS USA LLC,SHELBY,OH,44875,132-140 W MAIN ST,RICHLAND COUNTY,40.88,-82.67,331210,C,Metals,61851.468,61787.9,29,34.568,,,,,,,,,,61851.468,,,,,,,,,,,,,,,,,,,,,,,,,,,,,,,,,,,,,N,N,N
1002916,110070681603,ARCHER DANIEL MIDLAND COMPANY,COLUMBUS,NE,68601,3000 E 8TH STREET,PLATTE COUNTY,41.42,-97.29,311221,"C,II","Other,Waste",1342402.274,1325978.5,11003.75,5420.024,,,,,,,,,22385.4,1334535.024,,,,,,,,,,,,,,,,,,,,,,,,,,,,,,,,,,7867.25,,,N,N,Y
1001945,110000427128,ARCHER DANIELS MIDLAND,MARSHALL,MN,56258,400 WEST ERIE ROAD,LYON COUNTY,44.47,-95.78,311221,"C,II,PP","Other,Suppliers of CO2,Waste",179688.874,179015.7,565,108.174,,,,,,,,,2132.7,179211.374,,,,,,,,,,,,,,,,,,,,,,,,,,,,,,,,,,477.5,,,N,N,N
1003215,110000592047,ARCHER DANIELS MIDLAND,FRANKFORT,IN,46041,2191 W CR 0 NS,CLINTON COUNTY,40.29,-86.55,311224,C,Other,57883.732,57824,27.25,32.482,,,,,,,,,,57883.732,,,,,,,,,,,,,,,,,,,,,,,,,,,,,,,,,,,,,N,N,N
1005935,110002382680,ARCHER DANIELS MIDLAND COMPANY,LINCOLN,NE,68507,7800 THAYER STREET,LANCASTER COUNTY,40.87,-96.62,311224,C,Other,141355.636,140363.5,364.25,627.886,,,,,,,,,,141355.636,,,,,,,,,,,,,,,,,,,,,,,,,,,,,,,,,,,,,N,N,N
1005940,110000595115,ARCHER DANIELS MIDLAND PROCESSING,VELVA,ND,58790,1388 HIGHWAY 97,MCHENRY COUNTY,48.06,-100.92,311224,C,Other,44703.432,44657.4,21,25.032,,,,,,,,,,44703.432,,,,,,,,,,,,,,,,,,,,,,,,,,,,,,,,,,,,,N,N,N
1004649,110000404198,ARCONIC LAFAYETTE LLC,LAFAYETTE,IN,47905,3131 E MAIN ST,TIPPECANOE COUNTY,40.40,-86.86,331314,C,Metals,60170.524,60108.6,28.25,33.674,,,,,,,,,,60170.524,,,,,,,,,,,,,,,,,,,,,,,,,,,,,,,,,,,,,N,N,N
1002795,110000916812,ARCONIC TENNESSEE OPERATIONS,ALCOA,TN,37701,2300 N WRIGHT RD,BLOUNT COUNTY,35.81,-83.97,331315,C,Metals,184841.104,184650.4,87,103.704,,,,,,,,,,184841.104,,,,,,,,,,,,,,,,,,,,,,,,,,,,,,,,,,,,,N,N,N
1003456,110061023663,ARDEN LDFL,WASHINGTON,PA,15301,200 Rangos Lane,WASHINGTON COUNTY,40.21,-80.26,562212,"C,HH",Waste,24782.508,92.8,24601.5,88.208,,,,,,,,,24493.5,218.758,,,,,,,,,,,,,,,,,,,,,,,,,,,,,,,,,24563.75,,,,N,N,N
1006659,110000589015,ARGOS CEMENT LLC. - ROBERTA PLANT,CALERA,AL,35040,8039 HIGHWAY 25,SHELBY COUNTY,33.10,-86.80,327310,"C,H",Minerals,992541.6,979016.9,4987,8537.7,,,,,,,,,,16.3,,,,,992525.3,,,,,,,,,,,,,,,,,,,,,,,,,,,,,,,,N,N,Y
1007566,110000585929,ARGOS USA -Martinsburg,MARTINSBURG,WV,25401,1826 SOUTH QUEEN STREET,BERKELEY COUNTY,39.43,-77.98,327310,"C,H",Minerals,1026935.486,1024150,1017.75,1767.736,,,,,,,,,,1496.076,,,,,1025439.41,,,,,,,,,,,,,,,,,,,,,,,,,,,,,,,,N,N,Y
1006199,110071161153,ARIZONA STATE UNIVERSITY,TEMPE,AZ,85281,"300 E. University Drive, Suite 320",MARICOPA COUNTY,33.42,-111.94,611310,C,Other,51184.808,51132.2,24,28.608,,,,,,,,,,51184.808,,,,,,,,,,,,,,,,,,,,,,,,,,,,,,,,,,,,,N,N,N
1006203,110032953294,ARKALON ETHANOL LLC,LIBERAL,KS,67901,8664 RD P,SEWARD COUNTY,37.11,-100.80,325193,"C,PP","Other,Suppliers of CO2",106934.348,106824.2,50.25,59.898,,,,,,,,,,106934.348,,,,,,,,,,,,,,,,,,,,,,,,,,,,,,,,,,,,,N,N,N
1002209,110001711997,ARKANSAS LIME COMPANY,BATESVILLE,AR,72501,600 LIMEDALE ROAD,INDEPENDENCE COUNTY,35.79,-91.74,327410,"C,S",Minerals,513751.634,512749.4,344.25,657.984,,,,,,,,,,239283.134,,,,,,,,,,,,,,274468.5,,,,,,,,,,,,,,,,,,,,,,,N,N,N
1005801,110000451671,ARKANSAS STEEL ASSOCIATES,NEWPORT,AR,72112,2803 VAN DYKE ROAD,JACKSON COUNTY,35.65,-91.24,331221,"C,Q",Metals,58586.176,58552.2,15.5,18.476,,,,,,,,,,32807.476,,,,,,,,,,,,25778.7,,,,,,,,,,,,,,,,,,,,,,,,,N,N,N
1006644,110000464168,ARKEMA BEAUMONT PLANT,BEAUMONT,TX,77701,2810 GULF STATES ROAD,JEFFERSON COUNTY,30.06,-94.06,325199,C,Chemicals,55912.54,55855,26.25,31.29,,,,,,,,,,55912.54,,,,,,,,,,,,,,,,,,,,,,,,,,,,,,,,,,,,,N,N,N
1006797,110071372206,ARKEMA INC CLEAR LAKE,PASADENA,TX,77507,9502 BAYPORT BLVD STE B,HARRIS COUNTY,29.62,-95.06,325110,C,Chemicals,82208.34,82123.4,38.75,46.19,,,,,,,,,,82208.34,,,,,,,,,,,,,,,,,,,,,,,,,,,,,,,,,,,,,N,N,N
1005721,110000380061,"ARKEMA, INC.",CALVERT CITY,KY,42029,4444 INDUSTRIAL PARKWAY,MARSHALL COUNTY,37.06,-88.37,325120,"C,L,OO","Chemicals,Industrial Gas Suppliers",910259.444,67156,31.5,39.038,843010.206,,,,,,2.7,20,,67226.538,,,,,,,,843032.906,,,,,,,,,,,,,,,,,,,,,,,,,,,,,N,N,N
1006785,110007029562,ARMSTRONG CEMENT & SUPPLY,CABOT,PA,16023,100 CLEARFIELD ROAD,BUTLER COUNTY,40.79,-79.70,327310,"C,H",Minerals,192341.94,191482.6,314,545.34,,,,,,,,,,10.5,,,,,192331.44,,,,,,,,,,,,,,,,,,,,,,,,,,,,,,,,N,N,Y
1003208,110000333906,ARMSTRONG WORLD IND MARIETTA CEILING PLT,MARIETTA,PA,17547,1507 RIVER ROAD,LANCASTER COUNTY,40.06,-76.59,339999,C,Other,69552.036,69479.7,33,39.336,,,,,,,,,,69552.036,,,,,,,,,,,,,,,,,,,,,,,,,,,,,,,,,,,,,N,N,N
1002968,110001737130,ARMSTRONG WORLD INDUSTRIES INC.,PENSACOLA,FL,32505,300 SOUTH MYRICK ST,ESCAMBIA COUNTY,30.41,-87.25,339999,C,Other,28902.492,28872.9,13.5,16.092,,,,,,,,,,28902.492,,,,,,,,,,,,,,,,,,,,,,,,,,,,,,,,,,,,,N,N,N
1002494,110070834736,ASARCO LLC AMARILLO COPPER REFINERY,AMARILLO,TX,79108,7001 NORTH HIGHWAY 136,POTTER COUNTY,35.28,-101.73,331410,C,Metals,49706.312,49654.8,23.5,28.012,,,,,,,,,,49706.312,,,,,,,,,,,,,,,,,,,,,,,,,,,,,,,,,,,,,N,N,N
1002486,110069332261,ASARCO LLC Hayden Operations,Hayden,AZ,85135,866 N. Hayden Avenue,GILA COUNTY,33.00,-110.78,331410,C,Metals,42399.54,42355.7,20,23.84,,,,,,,,,,42399.54,,,,,,,,,,,,,,,,,,,,,,,,,,,,,,,,,,,,,N,N,N
1002190,110070377148,ASCEND PERFORMANCE MATERIALS CHOCOLATE BAYOU FACILITY,ALVIN,TX,77512,,BRAZORIA COUNTY,29.26,-95.21,325199,"C,X",Chemicals,632657.864,632387.7,123.25,146.914,,,,,,,,,,261885.164,,,,,,,,,,,,,,,,,,,,,,,,370772.7,,,,,,,,,,,,,N,N,N
1003975,110040916113,ASCEND PERFORMANCE MATERIALS OPERATIONS LLC,GREENWOOD,SC,29646,1515 HWY 246 S,GREENWOOD COUNTY,34.23,-82.06,325211,C,Other,46225.376,46177.7,21.75,25.926,,,,,,,,,,46225.376,,,,,,,,,,,,,,,,,,,,,,,,,,,,,,,,,,,,,N,N,N
1002665,110000445929,ASH GROVE CEMENT CO-CHANUTE PLANT,CHANUTE,KS,66720,1801 NORTH SANTA FE STREET,NEOSHO COUNTY,37.70,-95.46,327310,"C,H",Minerals,1009027.444,1007517.2,555.75,954.494,,,,,,,,,,1566.844,,,,,1007460.6,,,,,,,,,,,,,,,,,,,,,,,,,,,,,,,,N,N,Y
1002421,110000459192,ASH GROVE CEMENT COMPANY,MIDLOTHIAN,TX,76065,900 GIFCO ROAD,ELLIS COUNTY,32.52,-97.01,327310,"C,H",Minerals,690359.288,689928.9,182.75,247.638,,,,,,,,,,301.948,,,,,690057.34,,,,,,,,,,,,,,,,,,,,,,,,,,,,,,,,N,N,Y
1002527,110070834904,ASH GROVE CEMENT COMPANY-DURKEE,DURKEE,OR,97905,33060 SHIRTTAIL CREEK ROAD,BAKER COUNTY,44.54,-117.42,327310,"C,H",Minerals,692998.07,691855.6,430.25,712.22,,,,,,,,,,27.2,,,,,692970.87,,,,,,,,,,,,,,,,,,,,,,,,,,,,,,,,N,N,Y
1007552,110000596793,ASH GROVE CEMENT COMPANY-Louisville,LOUISVILLE,NE,68037,16215 HWY. 50,CASS COUNTY,41.01,-96.15,327310,"C,H",Minerals,604769.046,604288.9,189,291.146,,,,,,,,,,8930.216,,,,,595838.83,,,,,,,,,,,,,,,,,,,,,,,,,,,,,,,,N,N,Y
1002531,110000595197,ASH GROVE CEMENT COMPANY-MONTANA CITY,CLANCY,MT,59634,100 HIGHWAY 518,JEFFERSON COUNTY,46.54,-111.92,327310,"C,H",Minerals,301601.37,300536.9,389.5,674.97,,,,,,,,,,1246.396,,,,,300354.974,,,,,,,,,,,,,,,,,,,,,,,,,,,,,,,,N,N,Y
1002537,110000897085,ASH GROVE CEMENT COMPANY-SEATTLE,SEATTLE,WA,98134,3801 EAST MARGINAL WAY SOUTH,KING COUNTY,47.57,-122.34,327310,"C,H",Minerals,366201.668,365684.2,207.25,310.218,,,,,,,,,,185.9,,,,,366015.768,,,,,,,,,,,,,,,,,,,,,,,,,,,,,,,,N,N,Y
1007606,110000597729,ASH GROVE CEMENT-FOREMAN,Foreman,AR,71836,4343 HWY 108,LITTLE RIVER COUNTY,33.69,-94.42,327310,"C,H",Minerals,916250.412,915046.8,445.5,758.112,,,,,,,,,,2104.992,,,,,914145.42,,,,,,,,,,,,,,,,,,,,,,,,,,,,,,,,N,N,Y
1003496,110009878748,ASHLEY Energy LLC,SAINT LOUIS,MO,63102,1 ASHLEY STREET,ST. LOUIS CITY,38.64,-90.18,221330,C,Power Plants,49449.064,49398.1,23.25,27.714,,,,,,,,,,49449.064,,,,,,,,,,,,,,,,,,,,,,,,,,,,,,,,,,,,,N,N,N
1004576,110043792401,ASTORIA ENERGY LLC & ASTORIA ENERGY II LLC,ASTORIA,NY,11105,17-10 STEINWAY ST,QUEENS COUNTY,40.78,-73.90,221112,D,Power Plants,2452393.404,2449765.8,1168,1459.604,,,,,,,,,,,2452393.404,,,,,,,,,,,,,,,,,,,,,,,,,,,,,,,,,,,,N,N,N
1007800,110005040179,ATASCOCITA RECYCLING AND DISPOSAL FACILITY,HUMBLE,TX,77396,3623 WILSON ROAD,HARRIS COUNTY,29.95,-95.25,562212,HH,Waste,298721.75,,298721.75,,,,,,,,,,,,,,,,,,,,,,,,,,,,,,,,,,,,,,,,,,,,298721.75,,,,N,N,N
1006056,110013454957,ATHENS & CLARKE COUNTIES-DUNLAP ROAD LF,WINTERVILLE,GA,30683,5700 LEXINGTON RD,CLARKE COUNTY,33.93,-83.26,562212,HH,Waste,59109.5,,59109.5,,,,,,,,,,,,,,,,,,,,,,,,,,,,,,,,,,,,,,,,,,,,59109.5,,,,N,N,N
1005442,110000417228,ATI LADISH LLC,CUDAHY,WI,53110,5481 S PACKARD AVE,MILWAUKEE COUNTY,42.95,-87.86,332112,C,Other,64515.608,64449.3,30.25,36.058,,,,,,,,,,64515.608,,,,,,,,,,,,,,,,,,,,,,,,,,,,,,,,,,,,,N,N,N
1006778,110000348589,"ATI Specialty Materials, Monroe Plant",MONROE,NC,28110,2020 ASHCRAFT AVENUE,UNION COUNTY,34.98,-80.51,331492,C,Metals,61825.2,61758.2,29.75,37.25,,,,,,,,,,61825.2,,,,,,,,,,,,,,,,,,,,,,,,,,,,,,,,,,,,,N,N,N
1002571,110032607329,ATK Launch Systems LLC,Promontory,UT,84307,9160 North Highway 83,BOX ELDER COUNTY,41.68,-112.43,336415,C,Other,50173.246,50108.9,26.5,37.846,,,,,,,,,,50173.246,,,,,,,,,,,,,,,,,,,,,,,,,,,,,,,,,,,,,N,N,N
1007929,110071161840,"ATLANTIC ALUMINA, GRAMERCY OPERATIONS",GRAMERCY,LA,70052,1111 E AIRLINE HIGHWAY,ST. JAMES PARISH,30.07,-90.70,331313,C,Metals,804213.418,803382.9,378.75,451.768,,,,,,,,,,804213.418,,,,,,,,,,,,,,,,,,,,,,,,,,,,,,,,,,,,,N,N,N
1001858,110022939454,ATLANTIC COUNTY LANDFILL,EGG HARBOR TOWNSHIP,NJ,08234,6700 Delilah Road,ATLANTIC COUNTY,39.42,-74.54,562212,"C,HH",Waste,53852.4,88.4,53764,,,,,,,,,,128.8,88.4,,,,,,,,,,,,,,,,,,,,,,,,,,,,,,,,,53764,,,,N,N,N
1003826,110020667580,ATLANTIC WASTE DISPOSAL INC - SUSSEX COUNTY LAND,WAVERLY,VA,23890,3474 ATLANTIC LN,SUSSEX COUNTY,37.06,-77.18,562212,"C,HH",Waste,184946.648,1242.6,183703.75,0.298,,,,,,,,,,1243.148,,,,,,,,,,,,,,,,,,,,,,,,,,,,,,,,,183703.5,,,,N,N,N
1003034,110071159608,AUBURN SANITARY LANDFILL NO 2,AUBURN,NY,13021,311 NORTH DIVISION STREET,CAYUGA COUNTY,42.95,-76.59,562212,"C,HH",Waste,3646.596,950,2696,0.596,,,,,,,,,,951.096,,,,,,,,,,,,,,,,,,,,,,,,,,,,,,,,,2695.5,,,,N,N,N
1005000,110000380999,AUDUBON METALS LLC,HENDERSON,KY,42420,3055 OHIO DR.,HENDERSON COUNTY,37.81,-87.63,331314,C,Metals,51941.404,51887.7,24.5,29.204,,,,,,,,,,51941.404,,,,,,,,,,,,,,,,,,,,,,,,,,,,,,,,,,,,,N,N,N
1006344,110030493561,AUGUSTA COUNTY SVC AUTHORITY LANDFILL,STAUNTON,VA,24401,749 Christians Creek Road,AUGUSTA COUNTY,38.08,-79.06,562212,"C,HH",Waste,113266.45,36.2,113230.25,,,,,,,,,,,36.2,,,,,,,,,,,,,,,,,,,,,,,,,,,,,,,,,113230.25,,,,N,N,N
1007346,110008060702,AUSTIN WHITE LIME COMPANY MCNEIL PLANT & QUARRY,AUSTIN,TX,78728,14001 MCNEIL ROAD,TRAVIS COUNTY,30.45,-97.72,327410,"C,S",Minerals,249979.048,249688.7,111.25,179.098,,,,,,,,,,89473.048,,,,,,,,,,,,,,160506,,,,,,,,,,,,,,,,,,,,,,,N,N,N
1006132,110002025736,AUTUMN HILLS RECYCLING AND DISPOSAL FACILITY,ZEELAND,MI,49464,700 56TH AVENUE,OTTAWA COUNTY,42.78,-85.92,562212,"C,HH",Waste,68146.348,279.3,67866.75,0.298,,,,,,,,,,279.848,,,,,,,,,,,,,,,,,,,,,,,,,,,,,,,,,67866.5,,,,N,N,N
1003033,110032601432,AVA LANDFILL,AVA,NY,13303,7044 ST RTE 294,ONEIDA COUNTY,43.46,-75.41,562212,"C,HH",Waste,69259.948,86.4,69173.25,0.298,,,,,,,,,,86.698,,,,,,,,,,,,,,,,,,,,,,,,,,,,,,,,,69173.25,,,,N,N,N
1003328,110043803630,AVENAL REGIONAL LANDFILL,AVENAL,CA,93204,1200 Skyline Blvd,KINGS COUNTY,36.01,-120.12,562212,HH,Waste,43687.25,,43687.25,,,,,,,,,,,,,,,,,,,,,,,,,,,,,,,,,,,,,,,,,,,,43687.25,,,,N,N,N
1007682,110001150227,AZUSA LAND RECLAMATION CO INC INERT LF,AZUSA,CA,91702,1211 W GLADSTONE ST,LOS ANGELES COUNTY,34.11,-117.93,562212,"C,HH",Waste,105977.35,146.6,105830.75,,,,,,,,,,,146.6,,,,,,,,,,,,,,,,,,,,,,,,,,,,,,,,,105830.75,,,,N,N,N
1000378,110063125577,Abbott Laboratories,Casa Grande,AZ,85193,1250 West Maricopa Highway,PINAL COUNTY,32.90,-111.78,311514,C,Other,32823.076,32789.1,15.5,18.476,,,,,,,,,,32823.076,,,,,,,,,,,,,,,,,,,,,,,,,,,,,,,,,,,,,N,N,N
1003205,110056588161,Abbott Nutrition - A Division of Abbott Laboratories,ALTAVISTA,VA,24517,1518 MAIN STREET,CAMPBELL COUNTY,37.13,-79.26,311514,C,Other,26589.5,26562.1,12.5,14.9,,,,,,,,,,26589.5,,,,,,,,,,,,,,,,,,,,,,,,,,,,,,,,,,,,,N,N,N
1010630,,Aberdeen Generating Station,Aberdeen,SD,57401,421 30th Ave SW,,45.46,-98.50,221112,"C,D",Power Plants,32094.278,32061.1,15,18.178,,,,,,,,,,281.046,31813.232,,,,,,,,,,,,,,,,,,,,,,,,,,,,,,,,,,,,N,N,N
1012891,110070209450,Abilene Environmental Landfill,Abilene,TX,79601,1984 FM 3034,JONES COUNTY,32.52,-99.75,562212,"C,HH",Waste,27654.55,11.3,27643.25,,,,,,,,,,,11.3,,,,,,,,,,,,,,,,,,,,,,,,,,,,,,,,,27643.25,,,,N,N,N
1007357,110071161402,Abilene Regional Landfill,Abilene,TX,79601,,JONES COUNTY,32.53,-99.75,562212,HH,Waste,121952,,121952,,,,,,,,,,,,,,,,,,,,,,,,,,,,,,,,,,,,,,,,,,,,121952,,,,N,N,N
1001347,110012534766,Acadia Power Station,EUNICE,LA,70535,30385 CROWLEY EUNICE HWY,Acadia,30.43,-92.41,221112,D,Power Plants,1976162.376,1974155.6,915.5,1091.276,,,,,,,,,,,1976162.376,,,,,,,,,,,,,,,,,,,,,,,,,,,,,,,,,,,,N,N,N
1000125,110024408256,Ackerman Combined Cycle,ACKERMAN,MS,39735,2510 PENSACOLA ROAD,Choctaw,33.38,-89.21,221112,"C,D",Power Plants,1209259.195,1208031.5,560.175,667.52,,,,,,,,,,221.9,1209037.295,,,,,,,,,,,,,,,,,,,,,,,,,,,,,,,,,,,,N,N,N
1011325,110000459968,Acme Brick - Denton Plant,Denton,TX,76205,220 East Daniels St,DENTON COUNTY,33.19,-97.14,327120,C,Minerals,30115.036,30083.8,14.25,16.986,,,,,,,,,,30115.036,,,,,,,,,,,,,,,,,,,,,,,,,,,,,,,,,,,,,N,N,N
1012051,110067543849,Acme Brick - Texas Clay Plants,Malakoff,TX,75148,402 E Bartlett,HENDERSON COUNTY,32.17,-96.02,327120,C,Minerals,22322.916,22299.9,10.5,12.516,,,,,,,,,,22322.916,,,,,,,,,,,,,,,,,,,,,,,,,,,,,,,,,,,,,N,N,N
1003446,110071161634,Ada County Solid Waste Management,Boise,ID,83714,10300 Seaman's Gulch Road,ADA COUNTY,43.72,-116.27,562212,"C,HH",Waste,81773.904,1.1,81721.25,51.554,,,,,,,,,14263.9,74.654,,,,,,,,,,,,,,,,,,,,,,,,,,,,,,,,,81699.25,,,,N,N,N
1000603,110043799743,Addis Carbon Black Plant,Addis,LA,70710,5221 Sid Richardson Road,WEST BATON ROUGE PARISH,30.33,-91.28,325180,"C,X",Chemicals,314396,314396,,,,,,,,,,,,0,,,,,,,,,,,,,,,,,,,,,,,,314396,,,,,,,,,,,,,N,N,N
1000089,110038495768,AdvanSix Resins & Chemicals LLC,PHILADELPHIA,PA,19137,2501 MARGARET STREET,Philadelphia,40.01,-75.07,325194,C,Chemicals,158014.402,157850.8,74.5,89.102,,,,,,,,,,158014.402,,,,,,,,,,,,,,,,,,,,,,,,,,,,,,,,,,,,,N,N,N
1010185,110022533070,Advanced Magnesium Alloys Corporation,Anderson,IN,46013,1820 E. 32nd st.,MADISON COUNTY,40.09,-85.66,331492,T,Metals,245556,,,,,,245556,,,,,,,,,,,,,,,,,,,,,,245556,,,,,,,,,,,,,,,,,,,,,,N,N,N
1006553,110001234030,"Advanced Tri-Gen Power Systems, LLC",Chillicothe,IL,61523,1823 East Boy Scout Road,PEORIA COUNTY,40.84,-89.56,221112,C,Power Plants,140119.872,139975.2,66,78.672,,,,,,,,,,140119.872,,,,,,,,,,,,,,,,,,,,,,,,,,,,,,,,,,,,,N,N,N
1012089,,"Aemetis Advanced Fuels Keyes, Inc.",Ceres,CA,95307,4209 Jessup Road,,37.55,-120.92,325193,C,Other,75887.064,75808.7,35.75,42.614,,,,,,,,,,75887.064,,,,,,,,,,,,,,,,,,,,,,,,,,,,,,,,,,,,,N,N,N
1002316,110043804425,Aera Energy 25 Hill,Maricopa,CA,93252,29235 Highway 33,KERN COUNTY,35.09,-119.41,211120,C,Petroleum and Natural Gas Systems,142478.464,142331.6,67,79.864,,,,,,,,,,142478.464,,,,,,,,,,,,,,,,,,,,,,,,,,,,,,,,,,,,,N,N,N
1002156,110066768108,Aera Energy Alberta Finley Shale,Fellows,CA,93224,25401 Highway 33,KERN COUNTY,35.23,-119.58,211120,C,Petroleum and Natural Gas Systems,70655.684,70582.8,33.25,39.634,,,,,,,,,,70655.684,,,,,,,,,,,,,,,,,,,,,,,,,,,,,,,,,,,,,N,N,N
1006844,110070081958,Aera Energy Anderson Fitzgerald,McKittrick,CA,93251,59231 Main Camp Road,KERN COUNTY,35.30,-119.74,211120,C,Petroleum and Natural Gas Systems,170195.26,170019.9,80,95.36,,,,,,,,,,170195.26,,,,,,,,,,,,,,,,,,,,,,,,,,,,,,,,,,,,,N,N,N
1006845,110043799752,Aera Energy Belridge,McKittrick,CA,93251,59231 Main Camp Road,KERN COUNTY,35.45,-119.72,211120,C,Petroleum and Natural Gas Systems,1504685.688,1503134.3,707.75,843.638,,,,,,,,,,1504685.688,,,,,,,,,,,,,,,,,,,,,,,,,,,,,,,,,,,,,N,N,N
1003702,110043802757,Aera Energy Buena Fe,Maricopa,CA,93252,29235 Highway 33,KERN COUNTY,35.09,-119.41,211120,C,Petroleum and Natural Gas Systems,19924.924,19904.1,9.5,11.324,,,,,,,,,,19924.924,,,,,,,,,,,,,,,,,,,,,,,,,,,,,,,,,,,,,N,N,N
1002315,110043797308,Aera Energy Calso,McKittrick,CA,93251,59231 Main Camp Road,KERN COUNTY,35.30,-119.74,211120,C,Petroleum and Natural Gas Systems,27912.644,27883.6,13.25,15.794,,,,,,,,,,27912.644,,,,,,,,,,,,,,,,,,,,,,,,,,,,,,,,,,,,,N,N,N
1006405,110070131883,Aera Energy Coalinga,Coalinga,CA,93210,29010 Shell Road,FRESNO COUNTY,36.24,-120.32,211120,C,Petroleum and Natural Gas Systems,219827.472,219600.6,103.5,123.372,,,,,,,,,,219827.472,,,,,,,,,,,,,,,,,,,,,,,,,,,,,,,,,,,,,N,N,N
1012480,110043802757,Aera Energy Lockwood,Maricopa,CA,93525,29235 Highway 33,KERN COUNTY,35.09,-119.41,211120,C,Petroleum and Natural Gas Systems,12376.204,12363.6,5.75,6.854,,,,,,,,,,12376.204,,,,,,,,,,,,,,,,,,,,,,,,,,,,,,,,,,,,,N,N,N
1005790,110043793543,Aera Energy Lost Hills,McKittrick,CA,93251,59231 Main Camp Road,KERN COUNTY,35.30,-119.74,211120,C,Petroleum and Natural Gas Systems,207797.52,207583.8,97.5,116.22,,,,,,,,,,207797.52,,,,,,,,,,,,,,,,,,,,,,,,,,,,,,,,,,,,,N,N,N
1006914,110043793552,Aera Energy MOCO,Maricopa,CA,93252,29235 Highway 33,KERN COUNTY,35.09,-119.41,211120,C,Petroleum and Natural Gas Systems,252039.4,251779.1,118.75,141.55,,,,,,,,,,252039.4,,,,,,,,,,,,,,,,,,,,,,,,,,,,,,,,,,,,,N,N,N
1005635,110043802757,Aera Energy Metson,Maricopa,CA,93252,29235 Highway 33,KERN COUNTY,35.09,-119.41,211120,C,Petroleum and Natural Gas Systems,46851.324,46803.1,22,26.224,,,,,,,,,,46851.324,,,,,,,,,,,,,,,,,,,,,,,,,,,,,,,,,,,,,N,N,N
1012475,110070131883,Aera Energy Penn Zier,Coalinga,CA,93210,29010 Shell Road,FRESNO COUNTY,36.24,-120.32,211120,C,Petroleum and Natural Gas Systems,67556.596,67487,31.75,37.846,,,,,,,,,,67556.596,,,,,,,,,,,,,,,,,,,,,,,,,,,,,,,,,,,,,N,N,N
1006846,110001175530,Aera Energy San Ardo,San Ardo,CA,93450,66893 Sargent Road,MONTEREY COUNTY,35.95,-120.86,211120,C,Petroleum and Natural Gas Systems,400996.14,400582.4,188.75,224.99,,,,,,,,,,400996.14,,,,,,,,,,,,,,,,,,,,,,,,,,,,,,,,,,,,,N,N,N
1006556,110007007416,Afton Generating Station,LA MESA,NM,88044,10100 WEST AFTON ROAD,Dona Ana,32.11,-106.85,221112,"C,D",Power Plants,385159.272,384768,178.5,212.772,,,,,,,,,,1442.144,383717.128,,,,,,,,,,,,,,,,,,,,,,,,,,,,,,,,,,,,N,N,N
1002365,110000414061,Ag Processing Inc,Sergeant Bluff,IA,51054,2753 Port Neal Circle,WOODBURY COUNTY,42.31,-96.36,311224,C,Other,74493.32,74416.6,35,41.72,,,,,,,,,,74493.32,,,,,,,,,,,,,,,,,,,,,,,,,,,,,,,,,,,,,N,N,N
1010699,110071160481,"Aggregate Industries SWR, Inc. - Utelite Plant",Coalville,UT,84017,6375 W. Three Mile Canyon Road,SUMMIT COUNTY,40.72,-111.44,327992,C,Minerals,40298.144,39979.6,116.5,202.044,,,,,,,,,,40298.144,,,,,,,,,,,,,,,,,,,,,,,,,,,,,,,,,,,,,N,N,N
1011305,110040608205,Agri-Mark,Middlebury,VT,05753,869 Exchange St,ADDISON COUNTY,44.03,-73.17,311513,C,Other,21684.764,21661.7,10.25,12.814,,,,,,,,,,21684.764,,,,,,,,,,,,,,,,,,,,,,,,,,,,,,,,,,,,,N,N,N
1012864,110071161049,Agropur,Jeorme,ID,83338,547 West Nez Perce,JEROME COUNTY,42.71,-114.53,311513,C,Other,32464.976,32431,15.5,18.476,,,,,,,,,,32464.976,,,,,,,,,,,,,,,,,,,,,,,,,,,,,,,,,,,,,N,N,N
1012857,110071162342,Agropur Inc.,Luxemburg,WI,54217,2915 County Road Ab,BROWN COUNTY,44.56,-87.76,311511,C,Other,26928.5,26901.1,12.5,14.9,,,,,,,,,29.7,26928.5,,,,,,,,,,,,,,,,,,,,,,,,,,,,,,,,,,,,,N,N,N
1013643,110010952380,"Agropur, Inc.",Lake Norden,SD,57248,408 Dakota Street,HAMLIN COUNTY,44.58,-97.21,311513,C,Other,30678.832,30646.5,14.75,17.582,,,,,,,,,,30678.832,,,,,,,,,,,,,,,,,,,,,,,,,,,,,,,,,,,,,N,N,N
1007206,110000780851,Agua Fria Generating Station,GLENDALE,AZ,85303,7302 W NORTHERN AVE,Maricopa,33.55,-112.22,221112,"C,D",Power Plants,153454.08,153297.9,71.25,84.93,,,,,,,,,,10114.712,143339.368,,,,,,,,,,,,,,,,,,,,,,,,,,,,,,,,,,,,N,N,N
1000423,110038082302,Agua Mansa Power,COLTON,CA,92324,2040 AGUA MANSA ROAD,San Bernardino,34.04,-117.36,221112,D,Power Plants,2451.94,2449.2,1.25,1.49,,,,,,,,,,,2451.94,,,,,,,,,,,,,,,,,,,,,,,,,,,,,,,,,,,,N,N,N
1007273,110069464877,Ahlstrom - Munksjo Mosinee LLC,MOSINEE,WI,54455,100 MAIN STREET,MARATHON COUNTY,44.79,-89.69,322121,"AA,C,TT","Pulp and Paper,Waste",212119.088,201841.4,8845.5,1432.188,,,,,,,,,140883.6,188500.952,,,,,,,,,,,,,,,,,,,,,,,,,,,15441.886,,,,,,,,,8176.25,N,N,N
1011038,110011266003,"Ahlstrom Filtration, LLC.",Taylorville,IL,62568,1200 East Elm Street,CHRISTIAN COUNTY,39.56,-89.28,322121,C,Pulp and Paper,14964.044,14948.7,7,8.344,,,,,,,,,,14964.044,,,,,,,,,,,,,,,,,,,,,,,,,,,,,,,,,,,,,N,N,N
1005991,110070736574,Ahlstrom NA Specialty Solutions LLC,RHINELANDER,WI,54501,515 W DAVENPORT ST,ONEIDA COUNTY,45.64,-89.35,322121,C,Pulp and Paper,183474.948,183392.2,37.75,44.998,,,,,,,,,,183474.948,,,,,,,,,,,,,,,,,,,,,,,,,,,,,,,,,,,,,N,N,N
1004045,110000420884,Ahlstrom-Munksjo North America SPECIALTY SOLUTIONS,DEPERE,WI,54115,200 MAIN AVE,BROWN COUNTY,44.45,-88.07,322121,C,Pulp and Paper,49970.93,49889,34.25,47.68,,,,,,,,,,49970.93,,,,,,,,,,,,,,,,,,,,,,,,,,,,,,,,,,,,,N,N,N
1007253,110043973055,Air Liquide Hydrogen Plant,Anacortes,WA,98221,8581 South Texas Road,SKAGIT COUNTY,48.47,-122.55,325120,P,Chemicals,66107,66107,,,,,,,,,,,,,,,,,,,,,,,66107,,,,,,,,,,,,,,,,,,,,,,,,,,N,N,N
1006711,110000462758,Air Liquide Large Industries US - SMR,Pasadena,TX,77507,11400 Bay Area Blvd.,HARRIS COUNTY,29.62,-95.05,325120,P,Chemicals,608977.6,608977.6,,,,,,,,,,,,,,,,,,,,,,,608977.6,,,,,,,,,,,,,,,,,,,,,,,,,,N,N,N
1013205,110070200837,Air Products Baytown 3 Facility,Baytown,TX,77523,7714 West Bay Rd.,CHAMBERS COUNTY,29.75,-94.91,325120,P,Chemicals,1079462.5,1079462.5,,,,,,,,,,,,,,,,,,,,,,,1079462.5,,,,,,,,,,,,,,,,,,,,,,,,,,N,N,N
1004442,110067124258,Air Products LLC - Corpus Christi,Corpus Christi,TX,78407,5401 Up River Road,NUECES COUNTY,27.81,-97.46,325120,P,Chemicals,155131.6,155131.6,,,,,,,,,,,,,,,,,,,,,,,155131.6,,,,,,,,,,,,,,,,,,,,,,,,,,N,N,N
1006943,110059763000,Air Products LLC - Pasadena SMR,Pasadena,TX,77506,1435 Highway 225,HARRIS COUNTY,29.72,-95.20,325120,P,Chemicals,508201,508201,,,,,,,,,,,,,,,,,,,,,,,508201,,,,,,,,,,,,,,,,,,,,,,,,,,N,N,N
1003160,110000463622,Air Products La Porte Facility,La Porte,TX,77571,10202 Strang Rd,HARRIS COUNTY,29.70,-95.07,325120,"C,D",Power Plants,115987.492,115889.4,44.75,53.342,,,,,,,,,,39953.776,76033.716,,,,,,,,,,,,,,,,,,,,,,,,,,,,,,,,,,,,N,N,N
1006402,110043802819,Air Products Port Arthur Facility,Port Arthur,TX,77640,1801 S Gulfway Dr within Valero Refinery,JEFFERSON COUNTY,29.86,-93.97,325120,"C,P,PP","Chemicals,Suppliers of CO2",2514239.7,2513027,460.25,752.45,,,,,,,,,,655294.1,,,,,,,,,,,1858945.6,,,,,,,,,,,,,,,,,,,,,,,,,,N,Y,N
1011460,110055569567,Air Products and Chemicals - Norco SMR,Norco,LA,70079,14885 Airline Drive,ST. CHARLES PARISH,30.02,-90.41,325120,P,Chemicals,1072351.1,1072351.1,,,,,,,,,,,,,,,,,,,,,,,1072351.1,,,,,,,,,,,,,,,,,,,,,,,,,,N,N,N
1010506,110071159441,Air Products and Chemicals Inc. Luling SMR Facility,Luling,LA,70070,12501 River Road B,ST. CHARLES PARISH,29.93,-90.35,325120,P,Chemicals,724938.4,724938.4,,,,,,,,,,,,,,,,,,,,,,,724938.4,,,,,,,,,,,,,,,,,,,,,,,,,,N,N,N
1010625,110067126096,Air Products and Chemicals Inc./Detroit Hydrogen Facility Marathon Refinery,Detroit,MI,48217,1025 Oakwood Blvd,WAYNE COUNTY,42.29,-83.16,325120,P,Chemicals,385187.3,385187.3,,,,,,,,,,,,,,,,,,,,,,,385187.3,,,,,,,,,,,,,,,,,,,,,,,,,,N,N,N
1004586,110071160219,"Air Products and Chemicals, Inc. - BR SMR","Baton Rouge, La",LA,70805,2 Gulf States Utility Rd,EAST BATON ROUGE PARISH,30.49,-91.16,325120,P,Chemicals,912900,912900,,,,,,,,,,,,,,,,,,,,,,,912900,,,,,,,,,,,,,,,,,,,,,,,,,,N,N,N
1005852,110071160999,"Air Products and Chemicals, Inc. - Joliet, IL H2 Plant",Channahon,IL,60410,25915 S.E. Frontage Road (c/o ExxonMobil),WILL COUNTY,41.42,-88.22,325120,P,Chemicals,78336,78336,,,,,,,,,,,,,,,,,,,,,,,78336,,,,,,,,,,,,,,,,,,,,,,,,,,N,N,N
1004725,110055509631,Airgas Therapeutics LLC - Scott Medical Products,Plumsteadville,PA,18949,6141 Easton Road Bldg. #3,BUCKS COUNTY,40.38,-75.15,325120,"L,OO","Chemicals,Industrial Gas Suppliers",3254.545,,,,,525.385,2729.16,,,,,,,,,,,,,,,3254.545,,,,,,,,,,,,,,,,,,,,,,,,,,,,,N,N,N
1010624,,Akutan Seafood Processing Facility,Akutan,AK,99553,73 Salmon Way,,54.13,-165.79,311710,C,Other,47920.766,47742.5,54,124.266,,,,,,,,,641.7,47920.766,,,,,,,,,,,,,,,,,,,,,,,,,,,,,,,,,,,,,N,N,N
1006235,110002083922,Aladdin Manufacturing - Glasgow facility,GLASGOW,VA,24555,404 ANDERSON STREET,ROCKBRIDGE COUNTY,37.64,-79.45,314110,C,Other,15658.44,15642,7.5,8.94,,,,,,,,,,15658.44,,,,,,,,,,,,,,,,,,,,,,,,,,,,,,,,,,,,,N,N,N
1005138,110043799609,Alamance County Landfill,Graham,NC,27253,2701 Austin Quarter Rd.,ALAMANCE COUNTY,35.93,-79.29,562212,HH,Waste,125209.25,,125209.25,,,,,,,,,,,,,,,,,,,,,,,,,,,,,,,,,,,,,,,,,,,,125209.25,,,,N,N,N
1007208,110000860355,Alamo San Antonio Cement Plant,San Antonio,TX,78266,6055 West Green Mountain Road,BEXAR COUNTY,29.61,-98.38,327999,H,Minerals,817272.706,815122.5,787.75,1362.456,,,,,,,,,,,,,,,817272.706,,,,,,,,,,,,,,,,,,,,,,,,,,,,,,,,N,N,Y
1010937,110013681809,"Alaska Village Electric Cooperative, Inc.",Anchorage,AK,99503,4831 Eagle Street,ANCHORAGE MUNICIPALITY,61.18,-149.88,221112,C,Power Plants,30660.05,30554.3,31.25,74.5,,,,,,,,,,30660.05,,,,,,,,,,,,,,,,,,,,,,,,,,,,,,,,,,,,,N,N,N
1012844,110070073797,Albany Green Energy,Albany,GA,31705,508 Liberty Expressway SE,DOUGHERTY COUNTY,31.55,-84.11,221112,D,Power Plants,6364.622,,914.5,5450.122,,,,,,,,,502253.6,,6364.622,,,,,,,,,,,,,,,,,,,,,,,,,,,,,,,,,,,,N,N,Y
1003570,110071160482,Albemarle Corporation Bayport Plant,Pasadena,TX,77507,13000 Bay Park Road,HARRIS COUNTY,29.64,-95.07,325180,C,Chemicals,121430.486,121304.1,57.25,69.136,,,,,,,,,,121430.486,,,,,,,,,,,,,,,,,,,,,,,,,,,,,,,,,,,,,N,N,N
1009825,110001566421,"Albert Einstein College of Medicine, Inc.",Bronx,NY,10461,1300 Morris Park Ave,BRONX COUNTY,40.85,-73.84,622110,C,Other,47179.802,47127.3,23,29.502,,,,,,,,,,47179.802,,,,,,,,,,,,,,,,,,,,,,,,,,,,,,,,,,,,,N,N,N
1012517,110070069670,Alcoa USA Corp.,Massena,NY,13662,1814 State Highway 131,ST. LAWRENCE COUNTY,44.97,-74.89,331313,"C,F",Metals,304066.649,275547.3,24.25,28.906,,28466.193,,,,,,,,51662.456,,,252404.193,,,,,,,,,,,,,,,,,,,,,,,,,,,,,,,,,,N,N,N
1003448,110001138572,"Alcon Vision, LLC",FORT WORTH,TX,76134,6201 SOUTH FREEWAY,TARRANT COUNTY,32.66,-97.32,325412,C,Chemicals,30595.984,30564.2,14.5,17.284,,,,,,,,,,30595.984,,,,,,,,,,,,,,,,,,,,,,,,,,,,,,,,,,,,,N,N,N
1003411,110043802846,Alderson Regional Landfill,ALDERSON,OK,74522,201 SOUTH FIFTH STREET,PITTSBURG COUNTY,34.89,-95.69,562212,HH,Waste,30484.75,,30484.75,,,,,,,,,,,,,,,,,,,,,,,,,,,,,,,,,,,,,,,,,,,,30484.75,,,,N,N,N
1000955,110071160702,Alex Ty Cooke Generating Station,LUBBOCK,TX,79404,3500 E SLATON HWY,Lubbock,33.52,-101.79,221112,"C,D",Power Plants,0,0,,,,,,,,,,,,0,0,,,,,,,,,,,,,,,,,,,,,,,,,,,,,,,,,,,,N,N,Y
1012573,110000877301,"Alexander Orr, Jr. Water Treatment Plant",MIAMI,FL,33173,6800 SW 87TH AVE,MIAMI-DADE COUNTY,25.71,-80.34,221310,C,Other,26521.312,26476.8,16.5,28.012,,,,,,,,,,26521.312,,,,,,,,,,,,,,,,,,,,,,,,,,,,,,,,,,,,,N,N,N
1005044,110043805790,"Algonquin Power Sanger, LLC",Sanger,CA,93657,1125 Muscat Avenue,FRESNO COUNTY,36.69,-119.55,221112,"C,D",Power Plants,27964.896,27936.4,13,15.496,,,,,,,,,,6.6,27958.296,,,,,,,,,,,,,,,,,,,,,,,,,,,,,,,,,,,,N,N,N
1006409,110024519001,"Algonquin Power Windsor Locks, LLC",WINDSOR LOCKS,CT,06096,26 CANAL BANK RD,Hartford,41.92,-72.63,221112,"C,D",Power Plants,89091.16,88998.5,42,50.66,,,,,,,,,,85669.128,3422.032,,,,,,,,,,,,,,,,,,,,,,,,,,,,,,,,,,,,N,N,N
1001217,110001599789,Allegany Generating Station,Portageville,NY,14536,11537 ROUTE 19A,Allegany,42.51,-78.07,221112,"C,D",Power Plants,7983.02,7974.8,3.75,4.47,,,,,,,,,,300.448,7682.572,,,,,,,,,,,,,,,,,,,,,,,,,,,,,,,,,,,,N,N,N
1004729,110022522279,"Allegheny & Tsingshan Stainless, LLC",Midland,PA,15059,952 Tenth Street,BEAVER COUNTY,40.64,-80.45,331110,C,Metals,14161.696,14146.9,6.75,8.046,,,,,,,,,,14161.696,,,,,,,,,,,,,,,,,,,,,,,,,,,,,,,,,,,,,N,N,N
1000916,110000374130,Allen,MEMPHIS,TN,38109,2574 PLANT RD,Shelby,35.07,-90.14,221112,"C,D",Power Plants,2058845.168,2056753.7,954.3,1137.168,,,,,,,,,,6554.674,2052290.494,,,,,,,,,,,,,,,,,,,,,,,,,,,,,,,,,,,,N,N,N
1000691,110000423612,Allen S King,OAK PARK HEIGHTS,MN,55003,1103 KING PLANT RD,Washington,45.03,-92.78,221112,"C,D",Power Plants,1821781.554,1812305.3,477.25,8999.004,,,,,,,,,,5537.08,1816244.474,,,,,,,,,,,,,,,,,,,,,,,,,,,,,,,,,,,,N,N,Y
1009920,110055518355,Alma No. 1 Mine,Ethel,WV,25076,1421 Band Mill Hollow Rd,LOGAN COUNTY,37.87,-81.89,212112,"C,FF",Other,98241.25,26,98215.25,,,,,,,,,,,26,,,,,,,,,,,,,,,,,,,,,,,,,,,,,,,98215.25,,,,,,N,N,N
1006161,110013406732,Almatis Burnside Inc,Burnside,LA,70738,41237 Highway 22,ASCENSION PARISH,30.14,-90.92,331313,C,Metals,249866.96,249609.4,117.5,140.06,,,,,,,,,,249866.96,,,,,,,,,,,,,,,,,,,,,,,,,,,,,,,,,,,,,N,N,N
1007315,110021087517,Almond Power Plant,MODESTO,CA,95358,4500 CROWS LANDING ROAD,Stanislaus,37.57,-120.99,221112,D,Power Plants,160829.804,160666.5,74.5,88.804,,,,,,,,,,,160829.804,,,,,,,,,,,,,,,,,,,,,,,,,,,,,,,,,,,,N,N,N
1003689,110069522662,Alon Bakersfield Refining,Bakersfield,CA,93308,6451 Rosedale Highway,KERN COUNTY,35.38,-119.07,324110,C,Petroleum and Natural Gas Systems,17088.036,17070.5,8,9.536,,,,,,,,,,17088.036,,,,,,,,,,,,,,,,,,,,,,,,,,,,,,,,,,,,,N,N,N
1013070,110071162022,Alpaca Energy LLC,Canton,PA,17724,220 Romaine Ln.,BRADFORD COUNTY,41.66,-76.81,221112,C,Power Plants,21850.316,21827.3,10.5,12.516,,,,,,,,,,21850.316,,,,,,,,,,,,,,,,,,,,,,,,,,,,,,,,,,,,,N,N,N
1005826,110037574808,"AlphaPET, Inc.",Decatur,AL,35601,1301 Finley Island Road,MORGAN COUNTY,34.64,-87.05,325211,C,Other,42710.84,42667,20,23.84,,,,,,,,,,42710.84,,,,,,,,,,,,,,,,,,,,,,,,,,,,,,,,,,,,,N,N,N
1012152,110070082175,Alpine Power Plant,Elmira,MI,49730,7432 M-32,OTSEGO COUNTY,45.06,-84.83,221112,"C,D",Power Plants,190032.092,189838.1,88.5,105.492,,,,,,,,,,217.5,189814.592,,,,,,,,,,,,,,,,,,,,,,,,,,,,,,,,,,,,N,N,N
1013088,110070379592,Alpont LLC,Oregon,OH,43616,4112 Corduroy Rd,LUCAS COUNTY,41.66,-83.45,325199,C,Chemicals,755.248,754.7,0.25,0.298,,,,,,,,,,755.248,,,,,,,,,,,,,,,,,,,,,,,,,,,,,,,,,,,,,N,N,N
1000417,110071159476,Alsey Station,ALSEY,IL,62694,331 Campbell Road,Scott,39.57,-90.44,221112,"C,D",Power Plants,10214.812,10204.4,4.75,5.662,,,,,,,,,,3417.488,6797.324,,,,,,,,,,,,,,,,,,,,,,,,,,,,,,,,,,,,N,N,N
1012036,110067327146,"AltEn, LLC",Mead,NE,68041,1344 County Road 10,SAUNDERS COUNTY,41.20,-96.48,325193,C,Other,29117.54,29087.4,13.75,16.39,,,,,,,,,,29117.54,,,,,,,,,,,,,,,,,,,,,,,,,,,,,,,,,,,,,N,N,N
1001625,110000508086,AltaGas Ripon Energy Inc.,Ripon,CA,95366,944 South Stockton Ave.,SAN JOAQUIN COUNTY,37.73,-121.12,221112,C,Power Plants,2966.588,2963.3,1.5,1.788,,,,,,,,,,2966.588,,,,,,,,,,,,,,,,,,,,,,,,,,,,,,,,,,,,,N,N,N
1007072,110071159487,"Altair Disposal Services, LLC",Altair,TX,77412,5464 Highway 71,COLORADO COUNTY,29.57,-96.46,562212,HH,Waste,34796,,34796,,,,,,,,,,,,,,,,,,,,,,,,,,,,,,,,,,,,,,,,,,,,34796,,,,N,N,N
1007699,110060864462,Altamont Landfill & Resource Recovery Facility,Livermore,CA,94551,10840 Altamont Pass Road,ALAMEDA COUNTY,37.72,-121.68,562212,"C,HH",Waste,183428.282,,183291.5,136.782,,,,,,,,,37918.8,195.032,,,,,,,,,,,,,,,,,,,,,,,,,,,,,,,,,183233.25,,,,N,N,N
1004861,110015379455,"Alto ICP, LLC",PEKIN,IL,61554,1301 S FRONT ST,TAZEWELL COUNTY,40.56,-89.67,312140,"C,II,PP","Other,Suppliers of CO2,Waste",167242.422,166783.1,365.75,93.572,,,,,,,,,,166955.172,,,,,,,,,,,,,,,,,,,,,,,,,,,,,,,,,,287.25,,,N,N,N
1000413,110070242131,"Alto Pekin, LLC",PEKIN,IL,61554,1300 SOUTH 2ND STREET,Tazewell,40.56,-89.66,325193,"C,II,PP","Other,Suppliers of CO2,Waste",314257.058,313863.3,201.25,192.508,,,,,,,,,4529.7,314210.558,,,,,,,,,,,,,,,,,,,,,,,,,,,,,,,,,,46.5,,,N,N,N
1004465,110071160590,American Canyon Landfill,American Canyon,CA,94503,,NAPA COUNTY,38.18,-122.28,562212,HH,Waste,38351,,38351,,,,,,,,,,,,,,,,,,,,,,,,,,,,,,,,,,,,,,,,,,,,38351,,,,N,N,N
1006878,110022357180,American Crystal Sugar Company - Drayton,Drayton,ND,58225,8152 Old Highway 44,PEMBINA COUNTY,48.59,-97.17,311313,"C,S,TT","Minerals,Waste",374530.178,331580.1,41687.75,1262.328,,,,,,,,,,301000.578,,,,,,,,,,,,,,32570.1,,,,,,,,,,,,,,,,,,,,,,40959.5,Y,N,N
1010323,110071161096,American Eagle,Cabin Creek,WV,25035,"200 Remington Coal Lane, Coal Fork Hollow",KANAWHA COUNTY,38.09,-81.53,212112,FF,Other,293745.25,,293745.25,,,,,,,,,,,,,,,,,,,,,,,,,,,,,,,,,,,,,,,,,,293745.25,,,,,,N,N,N
1002889,110007899248,American Soda LLC,GREEN RIVER,WY,82935,400 COUNTY ROAD 85,SWEETWATER COUNTY,41.50,-109.76,212391,"C,CC",Minerals,1219432.002,1214552.9,1810,3069.102,,,,,,,,,,877457.502,,,,,,,,,,,,,,,,,,,,,,,,,,,,,341974.5,,,,,,,,N,N,Y
1001859,110000732823,"American Sugar Refining, Inc. - Baltimore Refinery",BALTIMORE,MD,21230,1100 KEY HIGHWAY EAST,BALTIMORE CITY,39.28,-76.57,311314,C,Other,105035.046,104925.1,49.75,60.196,,,,,,,,,,105035.046,,,,,,,,,,,,,,,,,,,,,,,,,,,,,,,,,,,,,N,N,N
1001861,110057275997,"American Sugar Refining, Inc. - Yonkers Refinery",Yonkers,NY,10705,1 Federal St.,WESTCHESTER COUNTY,40.93,-73.90,311314,C,Other,84531.042,84426.5,43.75,60.792,,,,,,,,,,84531.042,,,,,,,,,,,,,,,,,,,,,,,,,,,,,,,,,,,,,N,N,N
1005802,110038076453,Ames,AMES,IA,50010,200 E 5TH ST,Story,42.02,-93.61,221112,D,Power Plants,78939.756,78529.3,165.5,244.956,,,,,,,,,6910.8,,78939.756,,,,,,,,,,,,,,,,,,,,,,,,,,,,,,,,,,,,N,N,Y
1013081,110060771865,Amherst County Landfill,MADISON HEIGHTS,VA,24521,715 KENTMOOR FARM RD,AMHERST COUNTY,37.48,-79.04,562212,HH,Waste,24693.25,,24693.25,,,,,,,,,,,,,,,,,,,,,,,,,,,,,,,,,,,,,,,,,,,,24693.25,,,,N,N,N
1005068,110070638224,Amsted Graphite Materials LLC,ANMOORE,WV,26323,2698 PHILIPPI PIKE,HARRISON COUNTY,39.25,-80.29,335991,C,Other,26845.7,26818.3,12.5,14.9,,,,,,,,,,26845.7,,,,,,,,,,,,,,,,,,,,,,,,,,,,,,,,,,,,,N,N,N
1003757,110000438731,"Amsted Rail Company, Inc.",Granite City,IL,62040,1700 Walnut Street,MADISON COUNTY,38.70,-90.16,331513,C,Metals,18717.78,18698.6,8.75,10.43,,,,,,,,,,18717.78,,,,,,,,,,,,,,,,,,,,,,,,,,,,,,,,,,,,,N,N,N
1000865,110001631440,Anadarko,ANADARKO,OK,73005,701 B NE 7TH ST,Caddo,35.08,-98.23,221112,"C,D",Power Plants,446954.524,446495.3,209.5,249.724,,,,,,,,,,287930.464,159024.06,,,,,,,,,,,,,,,,,,,,,,,,,,,,,,,,,,,,N,N,N
1001134,110040486364,Anaheim Combustion Turbine,Anaheim,CA,92806,3071 E Miraloma Ave,Orange,33.85,-117.86,221112,D,Power Plants,11409.908,11398.4,5.25,6.258,,,,,,,,,,,11409.908,,,,,,,,,,,,,,,,,,,,,,,,,,,,,,,,,,,,N,N,N
1009982,110022521706,Analog Devices Inc,Willmington,MA,01887,One Analog Way,WASHINGTON COUNTY,45.50,-122.82,334413,"C,I",Other,55791.57143,4751.4,2.5,2181.36,4362.3025,34282.64893,7578.72,1095.64,1537,,,,,4756.88,,,,,,51034.69143,,,,,,,,,,,,,,,,,,,,,,,,,,,,,,,N,N,N
1003759,110000310084,"Analog Devices, Inc./ Wilmington Manufacturing",Wilmington,MA,01887,"1 Analog Way, MS-424",MIDDLESEX COUNTY,42.53,-71.15,334413,"C,I",Other,36526.27939,5024.7,2.25,1366.33,516.52,20307.43939,7624.32,474.72,1210,,,,,5029.632,,,,,,31496.64739,,,,,,,,,,,,,,,,,,,,,,,,,,,,,,,N,N,N
1002181,110000328618,Anchor Glass Container - Plant 41,ELMIRA HEIGHTS,NY,14903,151 E. MCCANN'S BLVD.,CHEMUNG COUNTY,42.12,-76.81,327213,"C,N",Minerals,83826.064,83761.4,29.5,35.164,,,,,,,,,,62810.064,,,,,,,,,21016,,,,,,,,,,,,,,,,,,,,,,,,,,,,N,N,N
1004943,110005668722,Anchor Glass Container Corporation - Plant 14,WARNER ROBINS,GA,31088,1044 BOOTH RD,HOUSTON COUNTY,32.59,-83.59,327213,"C,N",Minerals,48809.94,48766.1,20,23.84,,,,,,,,,,42751.94,,,,,,,,,6058,,,,,,,,,,,,,,,,,,,,,,,,,,,,N,N,N
1005074,110007385873,Anchor Glass Container Corporation - Plant 15,HENRYETTA,OK,74437,601 E BOLLINGER RD,OKMULGEE COUNTY,35.45,-95.96,327213,"C,N",Minerals,88788.512,88723.3,29.75,35.462,,,,,,,,,,63120.212,,,,,,,,,25668.3,,,,,,,,,,,,,,,,,,,,,,,,,,,,N,N,N
1004941,110022424296,Anchor Glass Container Corporation. - Plant 07,JACKSONVILLE,FL,32254,2121 HURON ST,DUVAL COUNTY,30.35,-81.71,327213,"C,N",Minerals,66926.668,66876.8,22.75,27.118,,,,,,,,,,48170.068,,,,,,,,,18756.6,,,,,,,,,,,,,,,,,,,,,,,,,,,,N,N,N
1004942,110001442458,Anchor Glass Container Corporation. - Plant 12,SHAKOPEE,MN,55379,4108 VALLEY INDUSTRIAL BLVD N,SCOTT COUNTY,44.80,-93.47,327213,"C,N",Minerals,80394.652,80340.4,24.75,29.502,,,,,,,,,,52701.552,,,,,,,,,27693.1,,,,,,,,,,,,,,,,,,,,,,,,,,,,N,N,N
1002178,110070081824,Anchor Glass Container. - Plant 42,LAWRENCEBURG,IN,47025,200 W BELLEVIEW,DEARBORN COUNTY,39.13,-84.86,327213,"C,N",Minerals,46210.172,46175.1,16,19.072,,,,,,,,,,33988.072,,,,,,,,,12222.1,,,,,,,,,,,,,,,,,,,,,,,,,,,,N,N,N
1007246,110071160203,Anclote Power Plant,HOLIDAY,FL,34691,1729 BAILLIES BLUFF ROAD,Pasco,28.18,-82.79,221112,"C,D",Power Plants,1363641.396,1362256.6,631.75,753.046,,,,,,,,,,1173.896,1362467.5,,,,,,,,,,,,,,,,,,,,,,,,,,,,,,,,,,,,N,N,N
1002813,110019990857,Anderson Regional Landfill,Belton,SC,29627,203 Landfill Road,ANDERSON COUNTY,34.57,-82.46,562212,HH,Waste,43208.5,,43208.5,,,,,,,,,,,,,,,,,,,,,,,,,,,,,,,,,,,,,,,,,,,,43208.5,,,,N,N,N
1001097,110025317173,Angus Anson,SIOUX FALLS,SD,57101,7100 EAST RICE ST,Minnehaha,43.60,-96.64,221112,"C,D",Power Plants,74497.922,74412.3,36.75,48.872,,,,,,,,,,342.9,74155.022,,,,,,,,,,,,,,,,,,,,,,,,,,,,,,,,,,,,N,N,N
1002037,110000441291,Anheuser-Busch LLC. - St. Louis Brewery,St. Louis,MO,63118,One Busch Place,ST. LOUIS CITY,38.60,-90.21,312120,"C,PP","Other,Suppliers of CO2",83230.102,83115.6,47.75,66.752,,,,,,,,,5593.2,83230.102,,,,,,,,,,,,,,,,,,,,,,,,,,,,,,,,,,,,,N,N,N
1011466,110024417530,Anoka Municipal Regional Landfill,Ramsey,MN,55303,14730 NW Sunfish Blvd,ANOKA COUNTY,45.24,-93.43,562212,HH,Waste,32474.5,,32474.5,,,,,,,,,,,,,,,,,,,,,,,,,,,,,,,,,,,,,,,,,,,,32474.5,,,,N,N,N
1002236,110071161780,Anson County Waste Management Facility,Polkton,NC,28135,375 Dozer Drive,ANSON COUNTY,34.97,-80.17,562212,HH,Waste,274450.5,,274450.5,,,,,,,,,,,,,,,,,,,,,,,,,,,,,,,,,,,,,,,,,,,,274450.5,,,,N,N,N
1006652,110057108927,Antelope Station,ABERNATHY,TX,79311,1454 CR 315,HALE COUNTY,33.87,-101.87,221112,C,Power Plants,168236.616,168062.9,79.25,94.466,,,,,,,,,,168236.616,,,,,,,,,,,,,,,,,,,,,,,,,,,,,,,,,,,,,N,N,N
1001055,110071161395,Antelope Valley,BEULAH,ND,58523,HWY 200,Mercer,47.37,-101.83,221112,D,Power Plants,6725540.938,6674837.7,18547.25,32155.988,,,,,,,,,,,6725540.938,,,,,,,,,,,,,,,,,,,,,,,,,,,,,,,,,,,,N,N,Y
1013385,110070081353,Antero Clearwater Facility,Pennsboro,WV,26415,364 Gum Run Road,RITCHIE COUNTY,39.26,-80.90,213112,C,Petroleum and Natural Gas Systems,75456.816,75379,35.5,42.316,,,,,,,,,,75456.816,,,,,,,,,,,,,,,,,,,,,,,,,,,,,,,,,,,,,N,N,N
1005949,110043804390,Apache Station,COCHISE,AZ,85606,3525 N US HWY 191,Cochise,32.06,-109.89,221112,"C,D",Power Plants,1461878.568,1456211.1,2153.75,3513.718,,,,,,,,,,8558.968,1453319.6,,,,,,,,,,,,,,,,,,,,,,,,,,,,,,,,,,,,N,N,Y
1000068,110070081751,Apex Generating Station,LAS VEGAS,NV,89165,15555 APEX POWER PARKWAY,Clark,36.42,-114.96,221112,"C,D",Power Plants,800991.632,800178.4,371,442.232,,,,,,,,,,1304.596,799687.036,,,,,,,,,,,,,,,,,,,,,,,,,,,,,,,,,,,,N,N,N
1012992,110027226829,Aptina LLC,Nampa,ID,83687,1401 North Kings Road,CANYON COUNTY,43.60,-116.53,334413,"C,I",Other,1656.159,1637.7,0.75,0.894,,,,,,16.815,,,,1639.344,,,,,,16.815,,,,,,,,,,,,,,,,,,,,,,,,,,,,,,,N,N,N
1001360,110000467129,Arapahoe Combustion Turbine Facility,DENVER,CO,80223,2601 SOUTH PLATTE RIVER ROAD,Denver,39.67,-105.00,221112,"C,D",Power Plants,102542.82,102438.7,47.5,56.62,,,,,,,,,,132.2,102410.62,,,,,,,,,,,,,,,,,,,,,,,,,,,,,,,,,,,,N,N,N
1013151,110070380218,Arauco North America,Grayling,MI,49738,5851 Arauco Rd,CRAWFORD COUNTY,44.60,-84.69,321219,C,Other,27562.398,27238.4,55.5,268.498,,,,,,,,,22122.6,27562.398,,,,,,,,,,,,,,,,,,,,,,,,,,,,,,,,,,,,,N,N,N
1003156,110000597881,"Arauco North America, Inc.",MALVERN,AR,72104,1275 WILLAMETTE ROAD,HOT SPRING COUNTY,34.38,-92.73,321219,C,Other,60131.324,60069.4,28.25,33.674,,,,,,,,,,60131.324,,,,,,,,,,,,,,,,,,,,,,,,,,,,,,,,,,,,,N,N,N
1003476,110017981656,Archer Daniels Midland,Mexico,MO,65265,400 E. Holt St.,AUDRAIN COUNTY,39.17,-91.88,311224,C,Other,32769.376,32735.4,15.5,18.476,,,,,,,,,,32769.376,,,,,,,,,,,,,,,,,,,,,,,,,,,,,,,,,,,,,N,N,N
1005661,110050297936,Archer Daniels Midland Co.,DECATUR,IL,62521,4666 FARIES PARKWAY,Macon,39.87,-88.89,311221,"C,II,PP,RR (RPT)","Injection of CO2,Other,Suppliers of CO2,Waste",4402189.878,4362843.9,18549.75,20796.228,,,,,,,,,16961.4,4395689.378,,,,,,,,,,,,,,,,,,,,,,,,,,,,,,,,,,6500.5,,,N,N,Y
1013749,110000428136,"Archer Daniels Midland Co. - Enderlin, ND",Enderlin,ND,58027,5525 136th Avenue SE,RANSOM COUNTY,46.61,-97.58,311224,"C,II","Other,Waste",29951.512,28798.2,574,579.312,,,,,,,,,51452.6,29635.262,,,,,,,,,,,,,,,,,,,,,,,,,,,,,,,,,,316.25,,,N,N,N
1002483,110000582735,Arconic US LLC,MASSENA,NY,13662,45 COUNTY ROUTE 42,ST. LAWRENCE COUNTY,44.95,-74.89,331318,"C,TT","Metals,Waste",17477.612,9617.7,7854.25,5.662,,,,,,,,,,9627.862,,,,,,,,,,,,,,,,,,,,,,,,,,,,,,,,,,,,7849.75,N,N,N
1007937,110000416005,Arconic US LLC,BETTENDORF,IA,52722,4879 STATE STREET,SCOTT COUNTY,41.53,-90.47,331315,C,Metals,266980.496,266705.4,125.5,149.596,,,,,,,,,,266980.496,,,,,,,,,,,,,,,,,,,,,,,,,,,,,,,,,,,,,N,N,N
1003379,110000334200,Arconic US LLC,Lancaster,PA,17601,1480 Manheim Pike,LANCASTER COUNTY,40.07,-76.32,331315,C,Metals,128622.616,128490,60.5,72.116,,,,,,,,,,128622.616,,,,,,,,,,,,,,,,,,,,,,,,,,,,,,,,,,,,,N,N,N
1005833,110040943012,Arcosa BR LW LLC ERWINVILLLE DIV,ERWINVILLE,LA,70729,12652 AIRLINE HWY,WEST BATON ROUGE PARISH,30.53,-91.42,212325,C,Other,68575.76,68049,193,333.76,,,,,,,,,,68575.76,,,,,,,,,,,,,,,,,,,,,,,,,,,,,,,,,,,,,N,N,N
1005835,110043972001,"Arcosa LW BR, LLC Livingston DIV",LIVINGSTON,AL,35470,201 Industrial St. SOUTH INDUSTRIAL PARK,SUMTER COUNTY,32.56,-88.20,212325,C,Other,74487.216,73891.9,217.75,377.566,,,,,,,,,,74487.216,,,,,,,,,,,,,,,,,,,,,,,,,,,,,,,,,,,,,N,N,N
1002800,110000766289,Arcosa Lightweight - Brooks Plant,Shephersville,KY,40165,1797 CORAL RIDGE RD.,BULLITT COUNTY,38.04,-85.72,327999,C,Minerals,48335.106,47948.9,141.25,244.956,,,,,,,,,,48335.106,,,,,,,,,,,,,,,,,,,,,,,,,,,,,,,,,,,,,N,N,N
1012548,110001158167,Arcosa Lightweight - Frazier Park,Frazier Park,CA,93225,17410 E Lockwood Valley Rd,VENTURA COUNTY,34.77,-119.04,212325,C,Other,22822.764,22799.2,10.75,12.814,,,,,,,,,496,22822.764,,,,,,,,,,,,,,,,,,,,,,,,,,,,,,,,,,,,,N,N,N
1013060,110070209531,Arcosa Lightweight Indiana,Mooresville,IN,46158,6618 N Tidewater Rd,MORGAN COUNTY,39.53,-86.38,212324,C,Other,68410.978,67888.4,191.5,331.078,,,,,,,,,,68410.978,,,,,,,,,,,,,,,,,,,,,,,,,,,,,,,,,,,,,N,N,N
1002504,110001530861,Ardagh Glass Inc. (Bridgeton),BRIDGETON,NJ,08302,443 S EAST AVE,CUMBERLAND COUNTY,39.41,-75.22,327213,"C,N",Minerals,52501.556,52462.1,18,21.456,,,,,,,,,,38032.756,,,,,,,,,14468.8,,,,,,,,,,,,,,,,,,,,,,,,,,,,N,N,N
1005977,110040969805,Ardagh Glass Inc. (Burlington),BURLINGTON,WI,53105,815 SOUTH MCHENRY STREET,RACINE COUNTY,42.66,-88.29,327213,"C,N",Minerals,76727.338,76670.5,25.25,31.588,,,,,,,,,,52420.238,,,,,,,,,24307.1,,,,,,,,,,,,,,,,,,,,,,,,,,,,N,N,N
1000105,110000888549,Ardagh Glass Inc. (Dolton),DOLTON,IL,60419,13850 COTTAGE GROVE AVENUE,COOK COUNTY,41.64,-87.60,327213,"C,N",Minerals,86902.28,86842,27.5,32.78,,,,,,,,,,58678.18,,,,,,,,,28224.1,,,,,,,,,,,,,,,,,,,,,,,,,,,,N,N,N
1000002,110041175000,Ardagh Glass Inc. (Dunkirk),DUNKIRK,IN,47336,524 E. CENTER STREET,JAY COUNTY,40.37,-85.20,327213,"C,N",Minerals,118958.692,118874.3,38.5,45.892,,,,,,,,,,82677.092,,,,,,,,,36281.6,,,,,,,,,,,,,,,,,,,,,,,,,,,,N,N,N
1000003,110001482887,Ardagh Glass Inc. (Henderson),Henderson,NC,27537,620 Facet Road,VANCE COUNTY,36.29,-78.39,327213,"C,N",Minerals,80097.188,80039.1,26.5,31.588,,,,,,,,,,55740.788,,,,,,,,,24356.4,,,,,,,,,,,,,,,,,,,,,,,,,,,,N,N,N
1000004,110000833518,Ardagh Glass Inc. (Lincoln),LINCOLN,IL,62656,1200 NORTH LOGAN STREET,LOGAN COUNTY,40.16,-89.35,327213,"C,N",Minerals,15613.656,15601.6,5.5,6.556,,,,,,,,,,11507.556,,,,,,,,,4106.1,,,,,,,,,,,,,,,,,,,,,,,,,,,,N,N,N
1000005,110000482022,Ardagh Glass Inc. (Madera),MADERA,CA,93637,24441 AVENUE 12 & ROAD 24 1/2,MADERA COUNTY,36.92,-120.10,327213,"C,N",Minerals,81665.82,81602.8,28.75,34.27,,,,,,,,,,60923.02,,,,,,,,,20742.8,,,,,,,,,,,,,,,,,,,,,,,,,,,,N,N,N
1000028,110017984519,Ardagh Glass Inc. (Pevely),PEVELY,MO,63070,1500 Ardagh Group Drive,JEFFERSON COUNTY,38.30,-90.40,327213,"C,N",Minerals,81784.64,81727.1,26.25,31.29,,,,,,,,,,55907.34,,,,,,,,,25877.3,,,,,,,,,,,,,,,,,,,,,,,,,,,,N,N,N
1000020,110000332275,Ardagh Glass Inc. (Port Allegany),PORT ALLEGANY,PA,16743,ONE GLASS PLACE,MCKEAN COUNTY,41.82,-78.29,327213,"C,N",Minerals,61401.472,61352.7,22.25,26.522,,,,,,,,,,47275.472,,,,,,,,,14126,,,,,,,,,,,,,,,,,,,,,,,,,,,,N,N,N
1000021,110009576930,Ardagh Glass Inc. (Ruston),SIMSBORO,LA,71275,4241 HIGHWAY 563,LINCOLN PARISH,32.54,-92.77,327213,"C,N",Minerals,41750.584,41718.8,14.5,17.284,,,,,,,,,,30710.084,,,,,,,,,11040.5,,,,,,,,,,,,,,,,,,,,,,,,,,,,N,N,N
1000023,110000454758,Ardagh Glass Inc. (Sapulpa),SAPULPA,OK,74066,1000 NORTH MISSION STREET,CREEK COUNTY,36.01,-96.10,327213,"C,N",Minerals,115608.78,115521.1,40,47.68,,,,,,,,,,84966.28,,,,,,,,,30642.5,,,,,,,,,,,,,,,,,,,,,,,,,,,,N,N,N
1000024,110000489659,Ardagh Glass Inc. (Seattle),SEATTLE,WA,98134,5801 EAST MARGINAL WAY SOUTH,KING COUNTY,47.55,-122.34,327213,"C,N",Minerals,62997.316,62946.9,23,27.416,,,,,,,,,,48729.716,,,,,,,,,14267.6,,,,,,,,,,,,,,,,,,,,,,,,,,,,N,N,N
1000026,110000347802,Ardagh Glass Inc. (Wilson),WILSON,NC,27893,2201 FIRESTONE PARKWAY,WILSON COUNTY,35.76,-77.88,327213,"C,N",Minerals,95179.812,95114.6,29.75,35.462,,,,,,,,,,63055.312,,,,,,,,,32124.5,,,,,,,,,,,,,,,,,,,,,,,,,,,,N,N,N
1006060,110000792508,Ardagh Glass Inc. (Winchester),WINCHESTER,IN,47394,603 E NORTH ST,RANDOLPH COUNTY,40.17,-84.97,327213,"C,N",Minerals,100004.036,99931.7,33,39.336,,,,,,,,,,70029.036,,,,,,,,,29975,,,,,,,,,,,,,,,,,,,,,,,,,,,,N,N,N
1003258,110000769721,Ardagh Glass Packaging Inc. (Houston),HOUSTON,TX,77029,4202 FIDELITY STREET,HARRIS COUNTY,29.76,-95.26,327213,"C,N",Minerals,65739.44,65695.6,20,23.84,,,,,,,,,,42652.24,,,,,,,,,23087.2,,,,,,,,,,,,,,,,,,,,,,,,,,,,N,N,N
1005158,110071160880,Arecibo Landfill,Arecibo,PR,00612,"Carr. PR-682 Interior, Sector Garrochales, Bo. Factor II",ARECIBO MUNICIPIO,18.42,-66.74,562212,"C,HH",Waste,81064.544,29.4,81034.25,0.894,,,,,,,,,230.2,30.544,,,,,,,,,,,,,,,,,,,,,,,,,,,,,,,,,81034,,,,N,N,N
1005458,110008056370,Argos Cement LLC,NEWBERRY,FL,32669,4000 NORTHWEST COUNTY ROAD 235,ALACHUA COUNTY,29.69,-82.58,327310,H,Minerals,922416.17,920373,764.75,1278.42,,,,,,,,,5688,,,,,,922416.17,,,,,,,,,,,,,,,,,,,,,,,,,,,,,,,,N,N,Y
1002750,110001666064,Argos Cement LLC - Harleyville Plant,HARLEYVILLE,SC,29448,463 JUDGE STREET,DORCHESTER COUNTY,33.23,-80.45,327310,"C,H",Minerals,629164.65,627327.5,704.75,1132.4,,,,,,,,,,37.1,,,,,629127.55,,,,,,,,,,,,,,,,,,,,,,,,,,,,,,,,N,N,Y
1006164,110000581004,"Argos Puerto Rico, Corp.",Dorado,PR,00646,"Road PR-2, Km 26.7",DORADO MUNICIPIO,18.39,-66.30,327310,"C,H",Minerals,220637.074,219891.6,272.25,473.224,,,,,,,,,,104077.174,,,,,116559.9,,,,,,,,,,,,,,,,,,,,,,,,,,,,,,,,N,N,N
1002645,110063280836,Arlington Landfill,Euless,TX,76040,800 Mosier Valley Road,TARRANT COUNTY,32.81,-97.10,562212,"C,HH",Waste,121514.45,24.2,121490.25,,,,,,,,,,,24.2,,,,,,,,,,,,,,,,,,,,,,,,,,,,,,,,,121490.25,,,,N,N,N
1001399,110017420398,Arlington Valley Energy Facility,ARLINGTON,AZ,85322,39027 W ELLIOT ROAD,Maricopa,33.34,-112.89,221112,"C,D",Power Plants,1156413.264,1155238.9,535.75,638.614,,,,,,,,,,44.4,1156368.864,,,,,,,,,,,,,,,,,,,,,,,,,,,,,,,,,,,,N,N,N
1004087,110000714889,Armstrong Gas Plant,Yoakum,TX,77995,13072 FM 682,DEWITT COUNTY,29.13,-97.04,211130,"C,NN-FRAC,W-PROC,W-NGTC","Natural Gas and Natural Gas Liquids Suppliers,Petroleum and Natural Gas Systems",177947.332,139773.9,38096.25,77.182,,,,,,,,,,135739.036,,,,,,,,,,,,,,,,,,,,,,,,,,,,,,,,,,,,,N,N,N
1005709,110025330942,"Armstrong Power, LLC",SHELOCTA,PA,15774,2313 STATE ROUTE 156,Armstrong,40.64,-79.35,221112,D,Power Plants,464169.892,463681.7,218.8,269.392,,,,,,,,,,,464169.892,,,,,,,,,,,,,,,,,,,,,,,,,,,,,,,,,,,,N,N,N
1006883,110000360163,Armstrong World Industries Inc,Macon,GA,31206,4520 Broadway,BIBB COUNTY,32.77,-83.65,339999,C,Other,94198.096,94101.1,44.25,52.746,,,,,,,,,,94198.096,,,,,,,,,,,,,,,,,,,,,,,,,,,,,,,,,,,,,N,N,N
1003846,110071162071,Arnold Engineering Development Center,Arnold AFB,TN,37389,"100 Kindel Drive, Suite B-327",COFFEE COUNTY,35.38,-86.04,928110,C,Other,29310.586,29279.6,14,16.986,,,,,,,,,,29310.586,,,,,,,,,,,,,,,,,,,,,,,,,,,,,,,,,,,,,N,N,N
1001297,110032941912,Arrowhead Landfill,Uniontown,AL,36786,622 Tayloe Road,PERRY COUNTY,32.44,-87.44,562212,HH,Waste,32075.75,,32075.75,,,,,,,,,,,,,,,,,,,,,,,,,,,,,,,,,,,,,,,,,,,,32075.75,,,,N,N,N
1001609,110071161627,Arsenal Hill Power Plant,SHREVEPORT,LA,71101,520 NORTH ALLEN,Caddo,32.52,-93.76,221112,D,Power Plants,989714.132,988709.1,458.5,546.532,,,,,,,,,,,989714.132,,,,,,,,,,,,,,,,,,,,,,,,,,,,,,,,,,,,N,N,N
1000759,110000866386,Arthur Kill,Staten Island,NY,10314,4401 VICTORY BLVD,Richmond,40.59,-74.20,221112,"C,D",Power Plants,560341.947,559772.8,259.525,309.622,,,,,,,,,,656.173,559685.774,,,,,,,,,,,,,,,,,,,,,,,,,,,,,,,,,,,,N,N,Y
1007189,110011349656,Arvah B Hopkins,TALLAHASSEE,FL,32304,1125 GEDDIE ROAD,Leon,30.45,-84.40,221112,"C,D",Power Plants,695817.068,695109.6,322.75,384.718,,,,,,,,,,84708.732,611108.336,,,,,,,,,,,,,,,,,,,,,,,,,,,,,,,,,,,,N,N,N
1007311,110056960418,Asbury,ASBURY,MO,64832,21133 UPHILL LANE,Jasper,37.36,-94.59,221112,D,Power Plants,905433.292,898349,2590.75,4493.542,,,,,,,,,,,905433.292,,,,,,,,,,,,,,,,,,,,,,,,,,,,,,,,,,,,N,N,Y
1000158,110007235269,Ascend (Decatur Plant),DECATUR,AL,35601,1050 CHEMSTRAND AVENUE,Morgan,34.63,-87.02,325199,"C,P,PP","Chemicals,Suppliers of CO2",530848.156,528660.3,1183,1004.856,,,,,,,,,,479299.496,,,,,,,,,,,51548.66,,,,,,,,,,,,,,,,,,,,,,,,,,N,Y,Y
1004962,110027373045,Ascend Performance Materials LLC,Cantonment,FL,32533,3000 Old Chemstrand Road,ESCAMBIA COUNTY,30.60,-87.25,325211,"C,E,P,TT,V","Chemicals,Waste",6590476.232,1113918.2,932,5475626.032,,,,,,,,,,924637.488,,4902424.82,,,,,,,,,190337.4,,,,,,572588.524,,,,,,,,,,,,,,,,,,,488,N,N,N
1002530,110071161252,Ash Grove Cement Company-LEAMINGTON,Nephi,UT,84648,19090 West Highway 132,MILLARD COUNTY,39.51,-112.26,327310,"C,H",Minerals,624432.12,622294.2,785,1352.92,,,,,,,,,,210.2,,,,,624221.92,,,,,,,,,,,,,,,,,,,,,,,,,,,,,,,,N,N,Y
1007180,110071160856,Asheville Steam Electric Plant,ARDEN,NC,28704,200 CP&L DRIVE,Buncombe,35.47,-82.54,221112,"C,D",Power Plants,1396089.06,1386387.5,3564.25,6137.31,,,,,,,,,,187.9,1395901.16,,,,,,,,,,,,,,,,,,,,,,,,,,,,,,,,,,,,N,N,Y
1004873,110071229967,Asphalt Hawaii Kalaeloa Asphalt Terminal,Kapolei,HI,96707,91-550 Malakole Street,HONOLULU COUNTY,21.32,-158.11,424710,"C,MM-IMP","Petroleum Product Suppliers,Petroleum and Natural Gas Systems",2676.106,2666.8,2.75,6.556,,,,,,,,,,2676.106,,,,,,,,,,,,,,,,,,,,,,,,,,,,,,,,,,,,,N,N,N
1000132,110071161591,Astoria Gas Turbine Power,ASTORIA,NY,11105,31 01 20TH AVE,Queens,40.79,-73.91,221112,"C,D",Power Plants,13800.877,13787.2,6.525,7.152,,,,,,,,,,0,13800.877,,,,,,,,,,,,,,,,,,,,,,,,,,,,,,,,,,,,N,N,Y
1007053,110002093109,Astoria Generating Station,ASTORIA,NY,11105,18-01 20TH AVE,Queens,40.79,-73.91,221112,"C,D",Power Plants,450696.956,450215.4,214.25,267.306,,,,,,,,,,3736.536,446960.42,,,,,,,,,,,,,,,,,,,,,,,,,,,,,,,,,,,,N,N,N
1000101,110071159600,Athens Generating Company,ATHENS,NY,12015,9300 U S HIGHWAY 9W,Greene,42.27,-73.85,221112,D,Power Plants,1131171.008,1130022.4,524,624.608,,,,,,,,,,,1131171.008,,,,,,,,,,,,,,,,,,,,,,,,,,,,,,,,,,,,N,N,N
1011217,110058240354,"Athens-Hocking Landfill, Inc.",Nelsonville,OH,45764,17970 Diamond Brick Road (Old U.S. Route 33),ATHENS COUNTY,39.46,-82.28,562212,HH,Waste,124615,,124615,,,,,,,,,,,,,,,,,,,,,,,,,,,,,,,,,,,,,,,,,,,,124615,,,,N,N,N
1003450,110033177425,Atkinson County - S.R. 50 MSW Landfill,Willachoochee,GA,31650,64 Arthur Davis Jr. Drive,ATKINSON COUNTY,31.34,-83.03,562212,HH,Waste,43515.5,,43515.5,,,,,,,,,,,,,,,,,,,,,,,,,,,,,,,,,,,,,,,,,,,,43515.5,,,,N,N,N
1007247,110071159562,Attala Generating Plant,SALLIS,MS,39160,2500 ATTALA ROAD 4130,Attala,33.01,-89.68,221112,"C,D",Power Plants,632807.504,632164.7,293.25,349.554,,,,,,,,,,0,632807.504,,,,,,,,,,,,,,,,,,,,,,,,,,,,,,,,,,,,N,N,N
1004818,110056972307,"Attis Ethanol Fulton, LLC",FULTON,NY,13069,376 OWENS RD,OSWEGO COUNTY,43.30,-76.38,325193,"C,PP","Other,Suppliers of CO2",156363.012,156201.9,73.5,87.612,,,,,,,,,,156363.012,,,,,,,,,,,,,,,,,,,,,,,,,,,,,,,,,,,,,N,N,N
1005810,110043799663,Aucilla Area Solid Waste Facility,Greenville,FL,32331,1313 SW Greenville Hills Rd.,MADISON COUNTY,30.46,-83.61,562212,HH,Waste,51665,,51665,,,,,,,,,,,,,,,,,,,,,,,,,,,,,,,,,,,,,,,,,,,,51665,,,,N,N,N
1001379,110071159532,Audrain Power Plant,VANDALIA,MO,63382,40897 HIGHWAY P,Audrain,39.31,-91.54,221112,D,Power Plants,11799.408,11787.9,5.25,6.258,,,,,,,,,,,11799.408,,,,,,,,,,,,,,,,,,,,,,,,,,,,,,,,,,,,N,N,N
1002822,110071161703,"Auria Albemarle, LLC",ALBEMARLE,NC,28001,313 BETHANY ROAD,STANLY COUNTY,35.40,-80.20,314110,C,Other,5316.478,5276.1,14.75,25.628,,,,,,,,,,5316.478,,,,,,,,,,,,,,,,,,,,,,,,,,,,,,,,,,,,,N,N,N
1001780,110070828215,Auriga Polymers Inc.,SPARTANBURG,SC,29307,1550 Dewberry Road,SPARTANBURG COUNTY,35.03,-81.88,325211,C,Other,78635.004,78553.9,37,44.104,,,,,,,,,,78635.004,,,,,,,,,,,,,,,,,,,,,,,,,,,,,,,,,,,,,N,N,N
1010658,110000448329,Aurora Ethanol Complex,Aurora,NE,68818,1205 South O Road,HAMILTON COUNTY,40.87,-98.04,325193,C,Other,147468.196,147316.4,69.25,82.546,,,,,,,,,,147468.196,,,,,,,,,,,,,,,,,,,,,,,,,,,,,,,,,,,,,N,N,N
1001397,110024834036,Aurora Generating Station,AURORA,IL,60504,2909 NORTH EOLA ROAD,Dupage,41.82,-88.23,221112,"C,D",Power Plants,357922.072,357558.4,165.8,197.872,,,,,,,,,,533.348,357388.724,,,,,,,,,,,,,,,,,,,,,,,,,,,,,,,,,,,,N,N,N
1013293,110058148437,Aurubis Buffalo Inc.,Buffalo,NY,14207,70 Sayre Street,ERIE COUNTY,42.95,-78.89,331420,C,Metals,35050.468,35014.3,16.5,19.668,,,,,,,,,,35050.468,,,,,,,,,,,,,,,,,,,,,,,,,,,,,,,,,,,,,N,N,N
1008734,110008062577,Avago Technologies,Fort Collins,CO,80525,4380 Ziegler Road,LARIMER COUNTY,40.52,-105.02,334413,"C,I",Other,182824.2134,14395.9,7,4703.93,560.92,28790.22336,123710.52,775.72,9880,,,,,14411.244,,,,,,168412.9694,,,,,,,,,,,,,,,,,,,,,,,,,,,,,,,N,N,N
1000843,110071160895,Avon Lake Power Plant,AVON LAKE,OH,44012,33570,Lorain,41.50,-82.05,221112,"C,D",Power Plants,437618.512,434191.9,1253,2173.612,,,,,,,,,,7309.17,430309.342,,,,,,,,,,,,,,,,,,,,,,,,,,,,,,,,,,,,N,N,Y
1004608,110056935385,Aztalan Bio LLC,Johnson Creek,WI,53038,W5289 Valero Way,JEFFERSON COUNTY,43.04,-88.79,325193,"C,PP","Other,Suppliers of CO2",112513.776,112397.6,53,63.176,,,,,,,,,,112513.776,,,,,,,,,,,,,,,,,,,,,,,,,,,,,,,,,,,,,N,N,N
1005872,110008262851,"B BRAUN MEDICAL, INC",IRVINE,CA,92614,2525 MCGAW AVE,ORANGE COUNTY,33.69,-117.84,325412,C,Chemicals,50698.108,50645.5,24,28.608,,,,,,,,,,50698.108,,,,,,,,,,,,,,,,,,,,,,,,,,,,,,,,,,,,,N,N,N
1003412,110041003641,BACKRIDGE LANDFILL,LA GRANGE,MO,63448,26265 STATE HIGHWAY B,LEWIS COUNTY,40.02,-91.52,562212,HH,Waste,60957.5,,60957.5,,,,,,,,,,,,,,,,,,,,,,,,,,,,,,,,,,,,,,,,,,,,60957.5,,,,N,N,N
1002728,110028037363,BADGER CREEK LIMITED,BAKERSFIELD,CA,93308,34759 LENCIONI AVE,KERN COUNTY,35.45,-119.09,221112,D,Power Plants,8544.268,8535.5,4,4.768,,,,,,,,,,,8544.268,,,,,,,,,,,,,,,,,,,,,,,,,,,,,,,,,,,,N,N,N
1002032,110038166365,BADGER STATE ETHANOL,MONROE,WI,53566,820 West 17th Street,GREEN COUNTY,42.59,-89.67,325193,"C,II,PP","Other,Suppliers of CO2,Waste",105641.002,105529.2,52.5,59.302,,,,,,,,,13.9,105638.252,,,,,,,,,,,,,,,,,,,,,,,,,,,,,,,,,,2.75,,,N,N,N
